id;rooms;address;price;lat;lon;canton;url
1;2;Bevaix, Rue du Temple 10;620;46.9307696;6.8152972;Neuchatel;https://www.immobilier.ch/en/rent/apartment/neuchatel/bevaix/fb-gerance-sarl-2758/charming-2-room-apartment-in-the-heart-of-bevaix-1396572
2;4;Neuchâtel, Rue du Roc 1;1400;46.9985270;6.9369620;Neuchatel;https://www.immobilier.ch/en/rent/apartment/neuchatel/neuchatel/atrium-conseils-gestion-immobiliere-sarl-442/rue-roc-1-neuchatel-1398045
3;3;La Chaux-de-Fonds, Rue du Tertre;840;47.0977148;6.8140167;Neuchatel;https://www.immobilier.ch/en/rent/apartment/neuchatel/chaux-fonds/eugene-herschdorfer-gerance-immobiliere-2515/3-rooms-with-the-character-of-an-old-house-1117854
4;3;La Chaux-de-Fonds, Balance 3;735;47.1035757;6.8322264;Neuchatel;https://www.immobilier.ch/en/rent/apartment/neuchatel/chaux-fonds/paperasserie-publique-2274/3-room-apartment-1266034
5;3.5;Neuchâtel, Marie de Nemours 10;1290;46.9984244;6.9481389;Neuchatel;https://www.immobilier.ch/en/rent/apartment/neuchatel/neuchatel/fidi-246/practical-35-room-apartment-in-the-mail-district-1392983
6;2;La Chaux-de-Fonds, Impasse des Arêtes 7;790;47.0994184;6.8369663;Neuchatel;https://www.immobilier.ch/en/rent/apartment/neuchatel/chaux-fonds/dynactif-2903/very-nice-renovated-2-room-apartment-50m2-1388833
7;2;La Chaux-de-Fonds, Impasse des Arêtes 9;820;47.0992196;6.8367756;Neuchatel;https://www.immobilier.ch/en/rent/apartment/neuchatel/chaux-fonds/dynactif-2903/ridges-district-of-chaux-fonds-1388929
8;4.5;Hauterive NE, Rouges-Terres 6;1300;47.0132695;6.9788788;Neuchatel;https://www.immobilier.ch/en/rent/apartment/neuchatel/hauterive-ne/dynactif-2903/hauterive-superb-45-room-apartment-fully-renovated-1390790
9;5;Neuchâtel, Rue du Môle 5;4000;46.9889901;6.9295424;Neuchatel;https://www.immobilier.ch/en/rent/apartment/neuchatel/neuchatel/naef-immobilier-neuchatel-115/stunning-5-room-apartment-with-view-of-lake-neuchatel-1251775
10;N/A;La Chaux-de-Fonds, Avenue Charles-Naine 12;940;47.0929020;6.8088296;Neuchatel;https://www.immobilier.ch/en/rent/apartment/neuchatel/chaux-fonds/dynactif-2903/quartiers-eplatures-3-room-apartment-completely-renovated-1388871
11;N/A;Neuchâtel, Rue des Usines 37;790;46.9838295;6.9021435;Neuchatel;https://www.immobilier.ch/en/rent/apartment/neuchatel/neuchatel/regie-fonciere-45/individual-studio-in-neuchatel-1374774
12;4;Boudry, Lières 17;1250;46.9509302;6.8377099;Neuchatel;https://www.immobilier.ch/en/rent/apartment/neuchatel/boudry/fidi-246/to-be-handed-over-immediately-or-by-arrangement-charming-renovated-4-room-apartment-in-1380964
13;3.5;Neuchâtel, Rue de la Cassarde 7;2150;46.9972632;6.9295869;Neuchatel;https://www.immobilier.ch/en/rent/apartment/neuchatel/neuchatel/jdm-consulting-sarl-1629/provisional-1375825
14;3.5;Cortaillod, Chemin du Canal 12;1590;46.9496956;6.8516369;Neuchatel;https://www.immobilier.ch/en/rent/apartment/neuchatel/cortaillod/fb-gerance-sarl-2758/magnificent-penthouse-of-35p-1392980
15;3.5;La Chaux-de-Fonds, Avenue Charles-Naines 16;1125;47.0926663;6.8085031;Neuchatel;https://www.immobilier.ch/en/rent/apartment/neuchatel/chaux-fonds/dynactif-2903/college-forges-district-renovated-4-room-apartments-1388830
16;5;Cortaillod, Rue de la Cure 4B;2150;46.9413010;6.8436558;Neuchatel;https://www.immobilier.ch/en/rent/apartment/neuchatel/cortaillod/c-lagerance-sarl-2869/magnificent-5-room-apartment-1371026
17;3;La Chaux-de-Fonds, rue de la Paix 85;1100;47.0996460;6.8211626;Neuchatel;https://www.immobilier.ch/en/rent/apartment/neuchatel/chaux-fonds/dynactif-2903/magnificent-3-piece-apartment-completely-renovated-1388831
18;5.5;2114 Fleurier, Contact agency for the address;1450;46.8989187;6.5789739;Neuchatel;https://www.immobilier.ch/en/rent/apartment/neuchatel/fleurier/betterhomes-schweiz-ag-611/charming-and-calm-1396896
19;3.5;Neuchâtel, Rue des Vignolants 25;2200;47.0070179;6.9628930;Neuchatel;https://www.immobilier.ch/en/rent/apartment/neuchatel/neuchatel/wincasa-siege-602/rental-with-no-deposit-required-building-with-lake-view-1394378
20;4.5;2072 St-Blaise, Contact agency for the address;2020;47.0135040;6.9806071;Neuchatel;https://www.immobilier.ch/en/rent/apartment/neuchatel/st-blaise/betterhomes-schweiz-ag-611/ground-floor-with-pleasant-garden-1397930
21;2;La Chaux-de-Fonds, Avenue Léopold-Robert 51;795;47.1005242;6.8265204;Neuchatel;https://www.immobilier.ch/en/rent/apartment/neuchatel/chaux-fonds/ellipsis-710/charming-2-room-apartment-in-the-city-center-1394511
22;1;La Chaux-de-Fonds, Rue Jaquet-Droz 12 A;720;47.1019387;6.8298403;Neuchatel;https://www.immobilier.ch/en/rent/apartment/neuchatel/chaux-fonds/naef-immobilier-chaux-fonds-121/appartement-1397007
23;2;Neuchâtel, Rue du Trésor 9;1490;46.9910982;6.9287845;Neuchatel;https://www.immobilier.ch/en/rent/apartment/neuchatel/neuchatel/fidimmobil-118/for-rent-apartment-2000-neuchatel-i440502-1395641
24;2;Bevaix, Chemin des Jonchères 13b;1031;46.9259136;6.8103980;Neuchatel;https://www.immobilier.ch/en/rent/apartment/neuchatel/bevaix/fidimmobil-118/for-rent-apartment-2022-bevaix-b680001-1394910
25;3;Neuchâtel, Rue du Rocher 11;1500;46.9979786;6.9351282;Neuchatel;https://www.immobilier.ch/en/rent/apartment/neuchatel/neuchatel/littoral-gerance-127/renovated-3-room-apartment-on-the-1st-floor-1396387
26;2.5;Colombier NE, Rue Haute 8;1000;46.9660343;6.8602767;Neuchatel;https://www.immobilier.ch/en/rent/apartment/neuchatel/colombier-ne/b2p-959/for-rent-in-the-center-of-the-village-of-colombier-25-room-apartment-1397421
27;3;Neuchâtel, Sablons 2-4;1150;46.9944035;6.9276073;Neuchatel;https://www.immobilier.ch/en/rent/apartment/neuchatel/neuchatel/bolliger-immobilier-111/magnificent-accommodation-with-superb-lake-views-1396690
28;3;Neuchâtel, Parcs 32;1040;46.9983193;6.9224395;Neuchatel;https://www.immobilier.ch/en/rent/apartment/neuchatel/neuchatel/naef-immobilier-neuchatel-115/appartement-entierement-renove-1395767
29;2.5;Cortaillod, rue de la Goutte d'or 13;1350;46.9435689;6.8474609;Neuchatel;https://www.immobilier.ch/en/rent/apartment/neuchatel/cortaillod/castoldi-immobilier-1135/charming-and-spacious-renovated-apartment-with-terrace-1395243
30;4;La Cibourg, À louer : Appartement lumineux comprenant :;708;47.1277863;6.8842982;Neuchatel;https://www.immobilier.ch/en/rent/apartment/neuchatel/cibourg/gerance-charles-berset-136/-1397643
31;4.5;La Chaux-de-Fonds, Rue du Cygne 8;1895;47.1016108;6.8265604;Neuchatel;https://www.immobilier.ch/en/rent/apartment/neuchatel/chaux-fonds/ellipsis-710/spacious-and-elegant-45-room-apartment-in-the-city-center-1394512
32;2;La Chaux-de-Fonds, Rue de la Charrière 62;690;47.1113807;6.8342577;Neuchatel;https://www.immobilier.ch/en/rent/apartment/neuchatel/chaux-fonds/pro-immob-119/for-rent-apartment-2300-chaux-fonds-23320200301-1394800
33;3.5;Neuchâtel, Rue des Parcs 86;1590;46.9916747;6.9161880;Neuchatel;https://www.immobilier.ch/en/rent/apartment/neuchatel/neuchatel/helvetia-assurances-gerance-imobiliere-neuchatel-1223/your-new-home-makes-all-your-travels-easier-1395221
34;3.5;Neuchâtel, Champréveyres 8;1300;47.0062736;6.9636351;Neuchatel;https://www.immobilier.ch/en/rent/apartment/neuchatel/neuchatel/reysus-gerance-1551/champreveyres-8-in-neuchatel-35-rooms-on-the-3rd-floor-1395642
35;4.5;Neuchâtel, Rue Pain-Blanc 19;1530;46.9819585;6.8983643;Neuchatel;https://www.immobilier.ch/en/rent/apartment/neuchatel/neuchatel/caisse-pensions-migros-ecublens-1557/duplex-apartment-1396986
36;2;Neuchâtel, Rue Maillefer 36;984;46.9878866;6.9091944;Neuchatel;https://www.immobilier.ch/en/rent/apartment/neuchatel/neuchatel/fidimmobil-118/for-rent-apartment-2000-neuchatel-h540401-1394911
37;N/A;Neuchâtel, Passage Marval 1;2000;46.9912241;6.9277936;Neuchatel;https://www.immobilier.ch/en/rent/apartment/neuchatel/neuchatel/marti-gerance-conseils-1805/very-nice-35-room-furnished-apartment-in-the-heart-of-neuchatel-city-centre-1395657
38;3.5;Hauterive NE, Chemin du Lac 7;1250;47.0107346;6.9752076;Neuchatel;https://www.immobilier.ch/en/rent/apartment/neuchatel/hauterive-ne/offidus-regie-immobiliere-124/02428-35-room-apartment-chemin-lac-7-hauterive-1396078
39;5.5;Neuchâtel, Passage Marval 1;2350;46.9912241;6.9277936;Neuchatel;https://www.immobilier.ch/en/rent/apartment/neuchatel/neuchatel/marti-gerance-conseils-1805/very-nice-55-room-furnished-apartment-in-the-city-center-1395672
40;4;Cernier, Rue Frédéric Soguel 12;1400;47.0590287;6.9018968;Neuchatel;https://www.immobilier.ch/en/rent/apartment/neuchatel/cernier/castoldi-immobilier-1135/office-practice-or-apartment-in-the-centre-of-cernier-1395244
41;4.5;La Chaux-de-Fonds, Rue du Cygne 4;1690;47.1016234;6.8269041;Neuchatel;https://www.immobilier.ch/en/rent/apartment/neuchatel/chaux-fonds/ellipsis-710/superb-45-room-apartment-in-the-heart-of-the-city-1394513
42;1;Bevaix, Rue de Monchevaux 8;560;46.9342170;6.8160695;Neuchatel;https://www.immobilier.ch/en/rent/apartment/neuchatel/bevaix/gerance-cpcn-2497/studio-with-small-terrace-in-quiet-neighborhood-1395953
43;3.5;Neuchâtel, Rue des Parcs 86;1570;46.9916747;6.9161880;Neuchatel;https://www.immobilier.ch/en/rent/apartment/neuchatel/neuchatel/helvetia-assurances-gerance-imobiliere-neuchatel-1223/35-apartment-on-the-4th-floor-1395222
44;4.5;Neuchâtel, Rue Caselle 4;1660;46.9868697;6.9007489;Neuchatel;https://www.immobilier.ch/en/rent/apartment/neuchatel/neuchatel/service-gerance-logement-ville-neuchatel-2648/45-room-apartment-on-the-1st-floor-1397024
45;1;Neuchâtel, Le Bourg 11;730;47.0036969;6.9278697;Neuchatel;https://www.immobilier.ch/en/rent/apartment/neuchatel/neuchatel/patrimoine-gerance-125/modern-and-bright-studio-1396485
46;2.5;Neuchâtel, Passage Marval 1;1400;46.9912241;6.9277936;Neuchatel;https://www.immobilier.ch/en/rent/apartment/neuchatel/neuchatel/marti-gerance-conseils-1805/very-nice-25-room-furnished-apartment-in-the-heart-of-neuchatel-city-centre-1395658
47;3;Le Locle, Rue des Envers 49;790;47.0560880;6.7485583;Neuchatel;https://www.immobilier.ch/en/rent/apartment/neuchatel/locle/hypoimmo-950/lovely-renovated-3-room-apartment-1395252
48;4;La Chaux-de-Fonds, Rue du Doubs 13;1070;47.1075059;6.8290097;Neuchatel;https://www.immobilier.ch/en/rent/apartment/neuchatel/chaux-fonds/bolliger-immobilier-111/apartment-with-balcony-1394307
49;5.5;Neuchâtel, Crêt-Taconnet 12 A;3000;46.9969974;6.9388837;Neuchatel;https://www.immobilier.ch/en/rent/apartment/neuchatel/neuchatel/naef-immobilier-neuchatel-115/superbe-appartement-situe-deux-pas-gare-cff-quelques-minutes-lac-centre-ville-1395725
50;4.5;2406 La Brévine, Contact agency for the address;1010;46.9800697;6.6064783;Neuchatel;https://www.immobilier.ch/en/rent/apartment/neuchatel/brevine/betterhomes-schweiz-ag-611/spacious-and-bright-in-the-center-of-the-village-1397837
51;4.5;La Chaux-de-Fonds, Rue du Cygne 8;1695;47.1016108;6.8265604;Neuchatel;https://www.immobilier.ch/en/rent/apartment/neuchatel/chaux-fonds/ellipsis-710/modern-45-room-apartment-in-the-heart-of-the-city-1394514
52;3;Cornaux NE, Chemin des Etroits 16;1070;47.0358847;7.0158251;Neuchatel;https://www.immobilier.ch/en/rent/apartment/neuchatel/cornaux-ne/naef-immobilier-neuchatel-115/bel-appartement-3-pieces-balcon-cornaux-1396279
53;7.5;Colombier NE, Haute 7;2580;46.9639076;6.8627928;Neuchatel;https://www.immobilier.ch/en/rent/apartment/neuchatel/colombier-ne/reysus-gerance-1551/haute-7-to-2013-colombier-75-rooms-on-the-2nd-floor-1397335
54;4.5;Fontainemelon, Les Coeudriers 2;1595;47.0549104;6.8913513;Neuchatel;https://www.immobilier.ch/en/rent/apartment/neuchatel/fontainemelon/gerance-cpcn-2497/45-room-apartment-1395637
55;2;Cortaillod, Baume 16;800;46.9441447;6.8524602;Neuchatel;https://www.immobilier.ch/en/rent/apartment/neuchatel/cortaillod/reysus-gerance-1551/baume-16-in-cortaillod-2-rooms-on-the-ground-floor-1397439
56;5.5;La Chaux-de-Fonds, Arêtes 7;1440;47.0994184;6.8369663;Neuchatel;https://www.immobilier.ch/en/rent/apartment/neuchatel/chaux-fonds/bolliger-immobilier-111/beautiful-55-room-apartment-in-aretes-1394308
57;4.5;Neuchâtel, Rue de l'Evole 108;2520;46.9866002;6.9135469;Neuchatel;https://www.immobilier.ch/en/rent/apartment/neuchatel/neuchatel/gerance-cpcn-2497/fully-renovated-45-room-apartment-1396457
58;3.5;Neuchâtel, Rue des Parcs 86;1740;46.9916747;6.9161880;Neuchatel;https://www.immobilier.ch/en/rent/apartment/neuchatel/neuchatel/helvetia-assurances-gerance-imobiliere-neuchatel-1223/35-apartment-on-the-4th-floor-1395224
59;1;Neuchâtel, Rue du Rocher 36;590;46.9981467;6.9333425;Neuchatel;https://www.immobilier.ch/en/rent/apartment/neuchatel/neuchatel/naef-immobilier-neuchatel-115/beautiful-studio-in-neuchatel-1396280
60;1;Neuchâtel, rue de la Dîme 72;400;47.0102435;6.9658544;Neuchatel;https://www.immobilier.ch/en/rent/apartment/neuchatel/neuchatel/service-gerance-logement-ville-neuchatel-2648/studio-on-the-4th-floor-1396332
61;1;Neuchâtel, Rue de la Maladière 20;720;46.9956254;6.9419073;Neuchatel;https://www.immobilier.ch/en/rent/apartment/neuchatel/neuchatel/naef-immobilier-neuchatel-115/studio-situe-3eme-etage-rue-maladiere-20-1395601
62;2;La Chaux-de-Fonds, Impasse des Arêtes 5;790;47.0996116;6.8371629;Neuchatel;https://www.immobilier.ch/en/rent/apartment/neuchatel/chaux-fonds/hypoimmo-950/bright-2-room-apartment-1396465
63;4;Neuchâtel, Verger-Rond 8;1300;46.9991879;6.9231189;Neuchatel;https://www.immobilier.ch/en/rent/apartment/neuchatel/neuchatel/reysus-gerance-1551/verger-rond-8-in-neuchatel-4-rooms-on-the-3rd-floor-1397307
64;5;Neuchâtel, Chemin des Pavés 64;1500;46.9966386;6.9243249;Neuchatel;https://www.immobilier.ch/en/rent/apartment/neuchatel/neuchatel/rt-immo-712/5-room-apartment-of-100-ideal-for-family-life-1397403
65;5.5;La Chaux-de-Fonds, rue de l'Est;1350;47.1032683;6.8360087;Neuchatel;https://www.immobilier.ch/en/rent/apartment/neuchatel/chaux-fonds/nexium-immobilier-sarl-2860/55-room-renovated-apartment-with-double-garage-1397994
66;2.5;Marin-Epagnier, Chemin Fin-d'Epagnier Ouest 5;1110;47.0115571;7.0199105;Neuchatel;https://www.immobilier.ch/en/rent/apartment/neuchatel/marin-epagnier/patrimoine-gerance-125/25-room-apartment-with-garden-1394671
67;4;La Chaux-de-Fonds, Rue du Locle 44;1000;47.0911238;6.8095400;Neuchatel;https://www.immobilier.ch/en/rent/apartment/neuchatel/chaux-fonds/ellipsis-710/bright-4-room-apartment-with-balcony-and-unobstructed-view-1394612
68;4.5;2416 Les Brenets, Contact agency for the address;970;47.0701968;6.7097322;Neuchatel;https://www.immobilier.ch/en/rent/apartment/neuchatel/les-brenets/betterhomes-schweiz-ag-611/on-the-top-floor-of-the-manor-1396244
69;3.5;Peseux, Rue du Château 1;1320;46.9882994;6.8889666;Neuchatel;https://www.immobilier.ch/en/rent/apartment/neuchatel/peseux/reysus-gerance-1551/chateau-1-in-peseux-35-rooms-on-the-2nd-floor-1397012
70;3.5;Neuchâtel, Rue des Parcs 86;1590;46.9916747;6.9161880;Neuchatel;https://www.immobilier.ch/en/rent/apartment/neuchatel/neuchatel/helvetia-assurances-gerance-imobiliere-neuchatel-1223/live-close-to-amenities-1395225
71;4.5;Bevaix, Chemin des Sagnes 21;1420;46.9359294;6.8179214;Neuchatel;https://www.immobilier.ch/en/rent/apartment/neuchatel/bevaix/naef-immobilier-neuchatel-115/modern-45-room-apartment-undergoing-complete-renovation-1396281
72;4.5;Bôle, Chemin des Longschamps 8;1427;46.9679385;6.8379152;Neuchatel;https://www.immobilier.ch/en/rent/apartment/neuchatel/bole/naef-immobilier-neuchatel-115/beautiful-45-room-apartment-with-balcony-in-bole-1395070
73;3;Neuchâtel, Rue de Fontaine-André 16;1350;46.9993951;6.9394757;Neuchatel;https://www.immobilier.ch/en/rent/apartment/neuchatel/neuchatel/patrimoine-gerance-125/3-room-apartment-with-lovely-terrace-1395299
74;3.5;Neuchâtel, Portes-Rouges 149;1200;47.0043520;6.9551925;Neuchatel;https://www.immobilier.ch/en/rent/apartment/neuchatel/neuchatel/reysus-gerance-1551/portes-rouges-149-in-neuchatel-35-rooms-on-the-1st-floor-1396680
75;1;Neuchâtel, Avenue des Alpes 28;875;46.9921669;6.9141684;Neuchatel;https://www.immobilier.ch/en/rent/apartment/neuchatel/neuchatel/gpc-gerance-ppe-courtage-1582/28-avenue-alpes-neuchatel-studio-apartment-for-rent-1394221
76;1;La Chaux-de-Fonds, Impasse des Arêtes 5;800;47.0996116;6.8371629;Neuchatel;https://www.immobilier.ch/en/rent/apartment/neuchatel/chaux-fonds/hypoimmo-950/large-bright-studio-1396466
77;5.5;Fleurier, Berthoud 3;1200;46.9027866;6.5854916;Neuchatel;https://www.immobilier.ch/en/rent/apartment/neuchatel/fleurier/reysus-gerance-1551/berthoud-3-in-fleurier-55-rooms-on-the-2nd-floor-1397404
78;1;Neuchâtel, Rue de la Maladière 18;750;46.9955701;6.9416314;Neuchatel;https://www.immobilier.ch/en/rent/apartment/neuchatel/neuchatel/naef-immobilier-neuchatel-115/studio-balcon-situe-2eme-etage-rue-maladiere-18-1394576
79;3;2400 Le Locle, Contact agency for the address;870;47.0578984;6.7484715;Neuchatel;https://www.immobilier.ch/en/rent/apartment/neuchatel/locle/betterhomes-schweiz-ag-611/3-net-rent-guarantees-offered-1394901
80;3.5;2072 St-Blaise, Contact agency for the address;1700;47.0158780;6.9790858;Neuchatel;https://www.immobilier.ch/en/rent/apartment/neuchatel/st-blaise/betterhomes-schweiz-ag-611/duplex-with-pleasure-garden-1397877
81;4;Le Locle, Rue de France 21;1100;47.0555735;6.7437871;Neuchatel;https://www.immobilier.ch/en/rent/apartment/neuchatel/locle/bolliger-immobilier-111/-1394266
82;4;Le Locle, Rue Jehan-droz 15;910;47.0549570;6.7455346;Neuchatel;https://www.immobilier.ch/en/rent/apartment/neuchatel/locle/pro-immob-119/for-rent-apartment-2400-locle-46450200101-1396282
83;3.5;Le Landeron, rue de la Petite-Thielle 8;1250;47.0545238;7.0705967;Neuchatel;https://www.immobilier.ch/en/rent/apartment/neuchatel/landeron/xama-immo-services-75/lovely-35-room-apartment-on-the-3rd-floor-with-balcony-1396570
84;4;Neuchâtel, Rue des Fahys 25;1290;46.9990780;6.9401812;Neuchatel;https://www.immobilier.ch/en/rent/apartment/neuchatel/neuchatel/littoral-gerance-127/4-room-apartment-on-the-ground-floor-1394340
85;1;Neuchâtel, Rue de la Chapelle 14;1150;47.0018698;6.9381852;Neuchatel;https://www.immobilier.ch/en/rent/apartment/neuchatel/neuchatel/patrimoine-gerance-125/real-gem-brand-new-55m-studio-apartment-1395300
86;5.5;La Chaux-de-Fonds, Rue du Cygne 8;1995;47.1016108;6.8265604;Neuchatel;https://www.immobilier.ch/en/rent/apartment/neuchatel/chaux-fonds/ellipsis-710/superb-55-room-apartment-with-large-terrace-1394510
87;1;La Chaux-de-Fonds, Avenue Léopold-Robert 90;721;47.0981342;6.8216163;Neuchatel;https://www.immobilier.ch/en/rent/apartment/neuchatel/chaux-fonds/gerance-cpcn-2497/beautiful-fully-renovated-studio-1395027
88;4;Neuchâtel, Rue de la Maladière 27;1700;46.9958517;6.9414174;Neuchatel;https://www.immobilier.ch/en/rent/apartment/neuchatel/neuchatel/livit-ag-real-estate-management-675/attractive-apartment-1397287
89;2;Colombier NE, Sources 1a;792;46.9616674;6.8593520;Neuchatel;https://www.immobilier.ch/en/rent/apartment/neuchatel/colombier-ne/naef-immobilier-neuchatel-115/2-room-apartment-in-colombier-1394577
90;3;Le Locle, Rue des Envers 49;790;47.0560880;6.7485583;Neuchatel;https://www.immobilier.ch/en/rent/apartment/neuchatel/locle/hypoimmo-950/3-rooms-completely-renovated-1395286
91;4;La Chaux-de-Fonds, Combe-Grieurin 31;1010;47.1018602;6.8183266;Neuchatel;https://www.immobilier.ch/en/rent/apartment/neuchatel/chaux-fonds/gerance-charles-berset-136/00115-4-room-apartment-combe-grieurin-31-chaux-fonds-1395419
92;3.5;Colombier NE, Chemin des Sources 8;1210;46.9653050;6.8549920;Neuchatel;https://www.immobilier.ch/en/rent/apartment/neuchatel/colombier-ne/livit-ag-real-estate-management-675/deal-not-to-be-missed-155520
93;2;La Chaux-de-Fonds, Rue Fritz-Courvoisier 66;690;47.1076708;6.8404384;Neuchatel;https://www.immobilier.ch/en/rent/apartment/neuchatel/chaux-fonds/naef-immobilier-chaux-fonds-121/appartement-2-pieces-2eme-etage-1166496
94;5.5;Neuchâtel, Crêt-Taconnet 12 B;2430;46.9970960;6.9391091;Neuchatel;https://www.immobilier.ch/en/rent/apartment/neuchatel/neuchatel/naef-immobilier-neuchatel-115/appartement-1383840
95;4;La Chaux-de-Fonds, Rue du St-Gothard 34;1410;47.0911438;6.8190096;Neuchatel;https://www.immobilier.ch/en/rent/apartment/neuchatel/chaux-fonds/service-batiments-logement-1982/saint-gothard-34-1st-floor-apartment-south-1320096
96;2;Couvet, Rue du Progrès 17;650;46.9224405;6.6276986;Neuchatel;https://www.immobilier.ch/en/rent/apartment/neuchatel/couvet/naef-immobilier-neuchatel-115/appartement-charmant-niche-quartier-paisible-verdoyant-1322304
97;3;La Chaux-de-Fonds, Crêt 1;880;47.1019545;6.8345168;Neuchatel;https://www.immobilier.ch/en/rent/apartment/neuchatel/chaux-fonds/isabelle-cornu-pehlivanlar-1892/3-rooms-with-balcony-682368
98;2;La Chaux-de-Fonds, Place de la Gare 4;790;47.0991987;6.8253148;Neuchatel;https://www.immobilier.ch/en/rent/apartment/neuchatel/chaux-fonds/service-batiments-logement-1982/place-gare-4-apartment-11th-north-east-1267008
99;4;Hauterive NE, Rouges-Terres 33 A;1350;47.0112547;6.9754732;Neuchatel;https://www.immobilier.ch/en/rent/apartment/neuchatel/hauterive-ne/offidus-regie-immobiliere-124/00128-4-room-apartment-rouges-terres-33-hauterive-1344192
100;4.5;Le Locle, Jeanneret 17;1190;47.0527111;6.7431306;Neuchatel;https://www.immobilier.ch/en/rent/apartment/neuchatel/locle/fidimmobil-118/for-rent-apartment-2400-locle-h580503-1071264
101;3;Neuchâtel, Rue des Fahys 77;990;46.9998370;6.9425235;Neuchatel;https://www.immobilier.ch/en/rent/apartment/neuchatel/neuchatel/fidimmobil-118/for-rent-apartment-2000-neuchatel-2550502-1360800
102;6.5;Couvet, Rue de la Gare 9;1500;46.9286129;6.6315630;Neuchatel;https://www.immobilier.ch/en/rent/apartment/neuchatel/couvet/rotilio-immobilier-2452/for-rent-apartment-2108-couvet-5136288-1146816
103;4;La Chaux-de-Fonds, Tuilerie 16;1070;47.1119124;6.8334620;Neuchatel;https://www.immobilier.ch/en/rent/apartment/neuchatel/chaux-fonds/fidimmobil-118/for-rent-apartment-2300-chaux-fonds-g300301-1378501
104;4;Cornaux NE, Le Grand-Pont 4;1350;47.0373700;7.0236572;Neuchatel;https://www.immobilier.ch/en/rent/apartment/neuchatel/cornaux-ne/regie-immobiliere-jouval-113/spacious-40-room-apartment-with-balcony-in-cornaux-1382053
105;4;La Chaux-de-Fonds, Rue du Bois-Noir 41;1100;47.0925580;6.8074303;Neuchatel;https://www.immobilier.ch/en/rent/apartment/neuchatel/chaux-fonds/littoral-gerance-127/renovated-4-room-apartment-on-the-7th-floor-no-47-1191589
106;4;Le Locle, france 14;950;47.0556675;6.7448930;Neuchatel;https://www.immobilier.ch/en/rent/apartment/neuchatel/locle/peruccio-gerance-1335/france-14-4-rooms-1269829
107;4;La Chaux-de-Fonds, Rue Arc-en-Ciel 2;980;47.0916290;6.8047220;Neuchatel;https://www.immobilier.ch/en/rent/apartment/neuchatel/chaux-fonds/service-batiments-logement-1982/rue-arc-ciel-2-4th-west-apartment-1355749
108;2;La Chaux-de-Fonds, Arêtes 7;790;47.0994184;6.8369663;Neuchatel;https://www.immobilier.ch/en/rent/apartment/neuchatel/chaux-fonds/bolliger-immobilier-111/beautiful-apartment-in-quiet-area-1160714
109;2;La Chaux-de-Fonds, Léopold-Robert 102;650;47.0973639;6.8203305;Neuchatel;https://www.immobilier.ch/en/rent/apartment/neuchatel/chaux-fonds/fidimmobil-118/for-rent-apartment-2300-chaux-fonds-h500303-1377386
110;3;La Chaux-de-Fonds, Rue du Collège 18;990;47.1054886;6.8332474;Neuchatel;https://www.immobilier.ch/en/rent/apartment/neuchatel/chaux-fonds/pro-immob-119/for-rent-apartment-2300-chaux-fonds-19180100201-1162730
111;N/A;Le Locle, Chemin des Carabiniers 5;855;47.0482074;6.7370643;Neuchatel;https://www.immobilier.ch/en/rent/apartment/neuchatel/locle/gerance-cpcn-2497/chemin-carabiniers-5-35-room-apartment-on-the-2nd-floor-north-side-renovated-1391786
112;3.5;Areuse, Route de Colombier 7;1500;46.9564964;6.8551966;Neuchatel;https://www.immobilier.ch/en/rent/apartment/neuchatel/areuse/reysus-gerance-1551/colombier-7-in-areuse-35-rooms-on-the-3rd-floor-1391978
113;3.5;2416 Les Brenets, Contact agency for the address;1100;47.0682799;6.7051820;Neuchatel;https://www.immobilier.ch/en/rent/apartment/neuchatel/les-brenets/betterhomes-schweiz-ag-611/in-magnificent-manor-1392362
114;2;Le Locle, Rue Bournot 17b;705;47.0572108;6.7497955;Neuchatel;https://www.immobilier.ch/en/rent/apartment/neuchatel/locle/poste-immobilier-ms-1735/beautiful-2-room-apartment-on-the-2nd-floor-for-rent-in-locle-ideally-located-751658
115;4;Marin-Epagnier, Fleur-de-Lys 21-31;1600;47.0109494;7.0037616;Neuchatel;https://www.immobilier.ch/en/rent/apartment/neuchatel/marin-epagnier/isabelle-cornu-pehlivanlar-1892/spacious-4-room-apartment-with-balcony-and-parking-space-garage-1330634
116;1;Neuchâtel, Grand-Rue 10;880;46.9922929;6.9290754;Neuchatel;https://www.immobilier.ch/en/rent/apartment/neuchatel/neuchatel/ribaux-von-kessel-services-immobiliers-117/apartment-in-neuchatel-with-city-view-1336490
117;3;La Chaux-de-Fonds, Rue Arc-en-Ciel 4;950;47.0918342;6.8045601;Neuchatel;https://www.immobilier.ch/en/rent/apartment/neuchatel/chaux-fonds/service-batiments-logement-1982/rue-arc-ciel-4-apartment-1st-north-east-1265450
118;3;Neuchâtel, Fbg de la Gare 29;1300;46.9982550;6.9371810;Neuchatel;https://www.immobilier.ch/en/rent/apartment/neuchatel/neuchatel/naef-immobilier-neuchatel-115/appartement-1360586
119;2;Le Locle, Rue Bournot 33;780;47.0562825;6.7477540;Neuchatel;https://www.immobilier.ch/en/rent/apartment/neuchatel/locle/bolliger-immobilier-111/pretty-renovated-2-room-apartment-1092591
120;2;La Chaux-de-Fonds, Rue du Collège 7;740;47.1051175;6.8320896;Neuchatel;https://www.immobilier.ch/en/rent/apartment/neuchatel/chaux-fonds/pro-immob-119/for-rent-apartment-2300-chaux-fonds-19190100202-1387311
121;4.5;Cormondrèche, Voie-Romaine 9;1480;46.9827879;6.8678508;Neuchatel;https://www.immobilier.ch/en/rent/apartment/neuchatel/cormondreche/fidimmobil-118/for-rent-apartment-2036-cormondreche-a890301-1389039
122;1.5;Le Locle, Chemin de la Malakoff 22;580;47.0603530;6.7567796;Neuchatel;https://www.immobilier.ch/en/rent/apartment/neuchatel/locle/hypoimmo-950/beautiful-furnished-15-room-apartment-in-locle-1390863
123;2.5;Neuchâtel, faubourg du lac 10;1110;46.9914886;6.9320625;Neuchatel;https://www.immobilier.ch/en/rent/apartment/neuchatel/neuchatel/reysus-gerance-1551/lake-10-in-neuchatel-25p-on-the-4th-floor-1325103
124;3.5;Neuchâtel, Rue Paul-Bouvier 5;1280;47.0046674;6.9574309;Neuchatel;https://www.immobilier.ch/en/rent/apartment/neuchatel/neuchatel/livit-ag-real-estate-management-675/your-apartment-in-neuchatel-1117551
125;4.5;La Chaux-de-Fonds, Sorbiers 21;1250;47.1080460;6.8281890;Neuchatel;https://www.immobilier.ch/en/rent/apartment/neuchatel/chaux-fonds/gerance-charles-berset-136/02247-4-room-apartment-sorbiers-21-chaux-fonds-46191
126;2;La Chaux-de-Fonds, Rue de la Fiaz 15;740;47.0911676;6.8118024;Neuchatel;https://www.immobilier.ch/en/rent/apartment/neuchatel/chaux-fonds/naef-immobilier-neuchatel-115/bel-appartement-idealement-situe-1342191
127;4;Les Geneveys-sur-Coffrane, Rue des Prés 3;1050;47.0150960;6.8532170;Neuchatel;https://www.immobilier.ch/en/rent/apartment/neuchatel/les-geneveys-coffrane/ribaux-von-kessel-services-immobiliers-117/apartment-in-les-geneveys-coffrane-1083028
128;2;2012 Auvernier, Contact agency for the address;1200;46.9774902;6.8722008;Neuchatel;https://www.immobilier.ch/en/rent/apartment/neuchatel/auvernier/properti-ag-2229/charming-25-room-apartment-with-panoramic-lake-view-in-milvignes-1373332
129;3;La Chaux-de-Fonds, Avenue du Locle 44;1100;47.0911238;6.8095400;Neuchatel;https://www.immobilier.ch/en/rent/apartment/neuchatel/chaux-fonds/gerofinance-agences-location-2217/bright-3-room-apartment-located-on-the-5th-floor-with-balcony-1311508
130;4.5;Noiraigue, Furcil 7;950;46.9558137;6.7261748;Neuchatel;https://www.immobilier.ch/en/rent/apartment/neuchatel/noiraigue/bolliger-immobilier-111/nice-accommodation-for-rent-with-balcony-1176820
131;3;Neuchâtel, Rue du Suchiez 10;1270;46.9898404;6.9050237;Neuchatel;https://www.immobilier.ch/en/rent/apartment/neuchatel/neuchatel/fidimmobil-118/for-rent-apartment-2000-neuchatel-2730102-1392052
132;2.5;Les Ponts-de-Martel, Grande-Rue 42;740;46.9982552;6.7291866;Neuchatel;https://www.immobilier.ch/en/rent/apartment/neuchatel/les-ponts-martel/hypoimmo-950/cozy-25-room-apartment-1332148
133;2.5;La Chaux-de-Fonds, Rue des Moulins 20;670;47.1080894;6.8316467;Neuchatel;https://www.immobilier.ch/en/rent/apartment/neuchatel/chaux-fonds/bolliger-immobilier-111/25-room-apartment-1335604
134;2.5;La Chaux-de-Fonds, Rue de la Charrière - Immeuble 69;915;47.1130230;6.8378520;Neuchatel;https://www.immobilier.ch/en/rent/apartment/neuchatel/chaux-fonds/pro-immob-119/for-rent-apartment-2300-chaux-fonds-19150700303-1342036
135;3;La Chaux-de-Fonds, Rue du Locle 22;850;47.0923979;6.8120361;Neuchatel;https://www.immobilier.ch/en/rent/apartment/neuchatel/chaux-fonds/hypoimmo-950/beautiful-3-room-apartment-with-balcony-in-chaux-fonds-1342228
136;2.5;Neuchâtel, Faubourg de l'Hôpital 33;1620;46.9946944;6.9347376;Neuchatel;https://www.immobilier.ch/en/rent/apartment/neuchatel/neuchatel/wincasa-siege-602/superb-modern-25-room-apartment-of-66m2-with-balcony-1063540
137;1;Neuchâtel, Place Numa-Droz 10;910;46.9903336;6.9307021;Neuchatel;https://www.immobilier.ch/en/rent/apartment/neuchatel/neuchatel/livit-ag-real-estate-management-675/in-the-city-center-924052
138;3;Neuchâtel, Rue de Grise-Pierre 7;1490;46.9854576;6.9087910;Neuchatel;https://www.immobilier.ch/en/rent/apartment/neuchatel/neuchatel/naef-immobilier-neuchatel-115/appartement-1375769
139;3;Fleurier, avenue de la gare 13;560;46.9043074;6.5811215;Neuchatel;https://www.immobilier.ch/en/rent/apartment/neuchatel/fleurier/regie-immobiliere-jouval-113/30-room-apartment-ideally-located-in-fleurier-1380089
140;3;Le Locle, Rue le Corbusier 16a;575;47.0488918;6.7396624;Neuchatel;https://www.immobilier.ch/en/rent/apartment/neuchatel/locle/peruccio-gerance-1335/3-room-apartment-rue-corbusier-16a-in-locle-390809
141;3;La Chaux-de-Fonds, Léopold-Robert 52;920;47.1008937;6.8261637;Neuchatel;https://www.immobilier.ch/en/rent/apartment/neuchatel/chaux-fonds/fidimmobil-118/for-rent-apartment-2300-chaux-fonds-d570505-397625
142;3.5;Neuchâtel, Rue des Moulins 15;1550;46.9921439;6.9280418;Neuchatel;https://www.immobilier.ch/en/rent/apartment/neuchatel/neuchatel/naef-immobilier-neuchatel-115/beautiful-atypical-apartment-located-in-the-heart-of-the-city-1127801
143;5;La Chaux-de-Fonds, Rue de la Charrière 37;1900;47.1096319;6.8320172;Neuchatel;https://www.immobilier.ch/en/rent/apartment/neuchatel/chaux-fonds/grand-chasseral-immo-698/spacious-55-room-loft-of-180-full-of-charm-1365342
144;4;Neuchâtel, Fahys 81;1050;47.0000477;6.9430581;Neuchatel;https://www.immobilier.ch/en/rent/apartment/neuchatel/neuchatel/naef-immobilier-neuchatel-115/superb-4-room-apartment-on-the-first-floor-1301310
145;3.5;Neuchâtel, Louis-d'Orléans 22;1590;46.9919565;6.9149116;Neuchatel;https://www.immobilier.ch/en/rent/apartment/neuchatel/neuchatel/regie-immobiliere-jouval-113/magnificent-apartment-with-balcony-and-lake-view-ideally-located-1382142
146;4.5;2023 Gorgier, Contact agency for the address;1450;46.9007606;6.7766511;Neuchatel;https://www.immobilier.ch/en/rent/apartment/neuchatel/gorgier/properti-ag-2229/exceptional-45-room-apartment-in-grande-beroche-canton-of-neuchatel-1384350
147;4.5;La Chaux-de-Fonds, Helvétie 79;1190;47.0899772;6.8184073;Neuchatel;https://www.immobilier.ch/en/rent/apartment/neuchatel/chaux-fonds/wincasa-siege-602/beautiful-45-room-apartment-on-the-3rd-floor-rental-with-free-deposit-671934
148;2.5;La Chaux-de-Fonds, Avenue Léopold-Robert 145b;1025;47.0951723;6.8177856;Neuchatel;https://www.immobilier.ch/en/rent/apartment/neuchatel/chaux-fonds/pro-immob-119/for-rent-apartment-2300-chaux-fonds-19080200105-1319454
149;4.5;La Chaux-de-Fonds, Rue du Cygne 6;1522;47.1014459;6.8266439;Neuchatel;https://www.immobilier.ch/en/rent/apartment/neuchatel/chaux-fonds/gerofinance-agences-location-2217/ideal-location-45-room-apartment-1326750
150;2;Neuchâtel, Cadolles 13;700;47.0003382;6.9239083;Neuchatel;https://www.immobilier.ch/en/rent/apartment/neuchatel/neuchatel/service-gerance-logement-ville-neuchatel-2648/2-room-apartment-on-the-2nd-floor-1269822
151;3.5;Le Locle, Rue de France 11;720;47.0559997;6.7449596;Neuchatel;https://www.immobilier.ch/en/rent/apartment/neuchatel/locle/hypoimmo-950/spacious-35-room-apartment-for-rent-in-locle-1353822
152;4;Neuchâtel, Rue de la Perrière 30;1370;46.9832226;6.8986462;Neuchatel;https://www.immobilier.ch/en/rent/apartment/neuchatel/neuchatel/naef-immobilier-neuchatel-115/appartement-1358046
153;4;La Chaux-de-Fonds, Rue du Doubs 75-77;900;47.1046640;6.8247210;Neuchatel;https://www.immobilier.ch/en/rent/apartment/neuchatel/chaux-fonds/naef-immobilier-chaux-fonds-121/1er-loyer-net-offert-appartement-4-pieces-4eme-etage-charmant-immeuble-1233571
154;4.5;La Chaux-de-Fonds, Rue de la Serre 98;1110;47.0985291;6.8213433;Neuchatel;https://www.immobilier.ch/en/rent/apartment/neuchatel/chaux-fonds/patrimoine-gerance-125/renovated-45-room-apartment-1388419
155;4.5;Le Locle, Primevères 2;890;47.0519440;6.7515124;Neuchatel;https://www.immobilier.ch/en/rent/apartment/neuchatel/locle/fidimmobil-118/for-rent-apartment-2400-locle-b930901-769603
156;6;La Chaux-de-Fonds, Rue Numa-Droz 118;1377;47.1003674;6.8209420;Neuchatel;https://www.immobilier.ch/en/rent/apartment/neuchatel/chaux-fonds/naef-immobilier-neuchatel-115/immeuble-bien-place-chaux-fonds-1288291
157;5;La Chaux-de-Fonds, Avenue Léopold-Robert 57;1230;47.1001598;6.8258988;Neuchatel;https://www.immobilier.ch/en/rent/apartment/neuchatel/chaux-fonds/pro-immob-119/for-rent-apartment-2300-chaux-fonds-22530100102-1365608
158;4;Boudry, Rue du Verger 3;1400;46.9519676;6.8409521;Neuchatel;https://www.immobilier.ch/en/rent/apartment/neuchatel/boudry/livit-ag-real-estate-management-675/in-quiet-and-residential-area-1085864
159;4.5;La Chaux-de-Fonds, Serre 10;1220;47.1041209;6.8298101;Neuchatel;https://www.immobilier.ch/en/rent/apartment/neuchatel/chaux-fonds/gerance-charles-berset-136/01023-4-room-duplex-apartment-serre-10-chaux-fonds-22280
160;2;La Chaux-de-Fonds, Doubs 133;512;47.1019485;6.8206058;Neuchatel;https://www.immobilier.ch/en/rent/apartment/neuchatel/chaux-fonds/gerance-charles-berset-136/00247-2-room-apartment-doubs-133-chaux-fonds-884744
161;4;Le Locle, Route de la Jaluse 5;980;47.0511199;6.7510349;Neuchatel;https://www.immobilier.ch/en/rent/apartment/neuchatel/locle/gerofinance-agences-location-2217/seize-it-40-room-apartment-with-balcony-1202312
162;3;La Chaux-de-Fonds, Rue Fritz-Courvoisier 66;650;47.1076708;6.8404384;Neuchatel;https://www.immobilier.ch/en/rent/apartment/neuchatel/chaux-fonds/naef-immobilier-chaux-fonds-121/appartement-1219629
163;3.5;La Chaux-de-Fonds, Vieux-Patriotes 46;910;47.0910278;6.8231421;Neuchatel;https://www.immobilier.ch/en/rent/apartment/neuchatel/chaux-fonds/fidimmobil-118/for-rent-apartment-2300-chaux-fonds-c220001-580749
164;4;Couvet, Rue de la Flamme 16;950;46.9230248;6.6237670;Neuchatel;https://www.immobilier.ch/en/rent/apartment/neuchatel/couvet/offidus-regie-immobiliere-124/01666-4-room-apartment-rue-flamme-16-couvet-1230669
165;3.5;Les Planchettes, Village 7;1000;47.1061893;6.7701773;Neuchatel;https://www.immobilier.ch/en/rent/apartment/neuchatel/les-planchettes/hypoimmo-950/cozy-35-room-apartment-in-the-countryside-1309965
166;5.5;Le Locle, Route de la Jaluse 5A;1090;47.0511142;6.7513145;Neuchatel;https://www.immobilier.ch/en/rent/apartment/neuchatel/locle/gerofinance-agences-location-2217/ideal-for-families-55-room-apartment-with-balcony-1240557
167;3.5;La Chaux-de-Fonds, Neuve 5;1035;47.1178796;6.8343293;Neuchatel;https://www.immobilier.ch/en/rent/apartment/neuchatel/chaux-fonds/bolliger-immobilier-111/beautiful-and-large-35-rooms-with-fireplace-and-beams-883725
168;3.5;Neuchâtel, Max-Petitpierre 42;1190;46.9852895;6.9126560;Neuchatel;https://www.immobilier.ch/en/rent/apartment/neuchatel/neuchatel/regie-immobiliere-jouval-113/magnificent-35-room-apartment-with-balcony-and-lake-view-in-neuchatel-1386861
169;2.5;La Chaux-de-Fonds, Avenue Léopold-Robert 145b;1000;47.0951723;6.8177856;Neuchatel;https://www.immobilier.ch/en/rent/apartment/neuchatel/chaux-fonds/pro-immob-119/for-rent-apartment-2300-chaux-fonds-19080200308-1319469
170;3.5;Neuchâtel, Rue du Tertre 10;1995;46.9943795;6.9304387;Neuchatel;https://www.immobilier.ch/en/rent/apartment/neuchatel/neuchatel/littoral-gerance-127/35-room-apartment-on-the-2nd-floor-1191597
171;4.5;Boudevilliers, Centre du Village 8;990;47.0268304;6.8892862;Neuchatel;https://www.immobilier.ch/en/rent/apartment/neuchatel/boudevilliers/littoral-gerance-127/45-room-apartment-on-the-1st-floor-1335501
172;4.5;Peseux, Grand'Rue 16;1490;46.9870470;6.8889738;Neuchatel;https://www.immobilier.ch/en/rent/apartment/neuchatel/peseux/patrimoine-gerance-125/4-room-apartment-located-close-to-shops-and-schools-1272141
173;3.5;La Chaux-de-Fonds, Rue du Progrès 90;1450;47.1015617;6.8213265;Neuchatel;https://www.immobilier.ch/en/rent/apartment/neuchatel/chaux-fonds/pro-immob-119/for-rent-duplex-two-level-2300-chaux-fonds-19010100101-1272333
174;3;Neuchâtel, Rue de l'Eglise 6;1480;46.9949098;6.9428773;Neuchatel;https://www.immobilier.ch/en/rent/apartment/neuchatel/neuchatel/naef-immobilier-neuchatel-115/appartement-3-pieces-situe-4eme-etage-rue-eglise-6-2000-neuchatel-1203981
175;3.5;La Chaux-de-Fonds, Albert-Monard 9-10;990;47.0890669;6.8159432;Neuchatel;https://www.immobilier.ch/en/rent/apartment/neuchatel/chaux-fonds/gerance-charles-berset-136/03289-3-room-apartment-albert-monard-9-10-chaux-fonds-711693
176;3;Neuchâtel, Rue de la Cassarde 34;1420;46.9974211;6.9281944;Neuchatel;https://www.immobilier.ch/en/rent/apartment/neuchatel/neuchatel/wincasa-siege-602/3-room-apartment-on-the-top-floor-with-breathtaking-lake-views-363538
177;3.5;Montmollin, Pins 5;1390;46.9931077;6.8474757;Neuchatel;https://www.immobilier.ch/en/rent/apartment/neuchatel/montmollin/regie-immobiliere-jouval-113/splendid-35-room-apartment-with-balcony-in-montmollin-1388146
178;4.5;2068 Hauterive NE, Contact agency for the address;3850;47.0156834;6.9723935;Neuchatel;https://www.immobilier.ch/en/rent/apartment/neuchatel/hauterive-ne/michel-wolf-1108/exceptional-hauterive-ne-1392466
179;3;Boudry, Avenue du Collège 27;1250;46.9504348;6.8394084;Neuchatel;https://www.immobilier.ch/en/rent/apartment/neuchatel/boudry/ribaux-von-kessel-services-immobiliers-117/apartment-in-boudry-with-neighborhood-view-606994
180;N/A;Neuchâtel, Tunnels 1;950;46.9888444;6.9101314;Neuchatel;https://www.immobilier.ch/en/rent/apartment/neuchatel/neuchatel/isabelle-cornu-pehlivanlar-1892/large-studio-with-fitted-kitchen-682354
181;1.5;Le Locle, Malakoff 22;580;47.0603660;6.7567509;Neuchatel;https://www.immobilier.ch/en/rent/apartment/neuchatel/locle/bolliger-immobilier-111/pretty-partially-furnished-apartment-912370
182;3.5;Couvet, Les Fleurs du Van - Rue du Burcle 3;1410;46.9214113;6.6353924;Neuchatel;https://www.immobilier.ch/en/rent/apartment/neuchatel/couvet/alterimo-sarl-2512/for-rent-apartment-2108-couvet-fleurs-van-a12-1280242
183;3.5;La Chaux-de-Fonds, Rue Jardinière 119;1210;47.0975956;6.8189190;Neuchatel;https://www.immobilier.ch/en/rent/apartment/neuchatel/chaux-fonds/pro-immob-119/for-rent-apartment-2300-chaux-fonds-19000200202-1360882
184;3.5;Hauterive NE, Route du Brel 10;1950;47.0125048;6.9745294;Neuchatel;https://www.immobilier.ch/en/rent/apartment/neuchatel/hauterive-ne/michel-wolf-1108/new-35-room-duplex-in-hauterive-1361842
185;4;Les Brenets, Champ-du-Noud 80;730;47.0694866;6.7045162;Neuchatel;https://www.immobilier.ch/en/rent/apartment/neuchatel/les-brenets/gerance-bosshart-gautschi-2839/appartement-1362359
186;3;La Chaux-de-Fonds, Rue du Bois-noir 54;775;47.0927326;6.8068861;Neuchatel;https://www.immobilier.ch/en/rent/apartment/neuchatel/chaux-fonds/service-batiments-logement-1982/rue-bois-noir-54-apartment-4th-east-1225463
187;1;Neuchâtel, Rue des Poteaux 3;740;46.9915514;6.9296991;Neuchatel;https://www.immobilier.ch/en/rent/apartment/neuchatel/neuchatel/ribaux-von-kessel-services-immobiliers-117/apartment-in-neuchatel-with-urban-view-939191
188;2.5;Neuchâtel, Fontaine-André 6;1290;46.9987561;6.9388768;Neuchatel;https://www.immobilier.ch/en/rent/apartment/neuchatel/neuchatel/naef-immobilier-neuchatel-115/appartement-1375607
189;2.5;La Chaux-de-Fonds, Numa-Droz 45;900;47.1040190;6.8269310;Neuchatel;https://www.immobilier.ch/en/rent/apartment/neuchatel/chaux-fonds/gerance-charles-berset-136/04121-1st-net-rent-offered-numa-droz-45-chaux-fonds-20855
190;2.5;Le Locle, Rue Auguste-Lambelet 1;700;47.0650817;6.7599947;Neuchatel;https://www.immobilier.ch/en/rent/apartment/neuchatel/locle/les-regisseurs-loeffel-1013/breathtaking-view-3-months-of-net-rent-offered-1244759
191;5;Neuchâtel, Rue du Rocher 24;2500;46.9982669;6.9347754;Neuchatel;https://www.immobilier.ch/en/rent/apartment/neuchatel/neuchatel/privera-ag-2299/penthouse-apartment-in-neuchatel-1317623
192;2.5;La Chaux-de-Fonds, Avenue Léopold-Robert 145b;1025;47.0951723;6.8177856;Neuchatel;https://www.immobilier.ch/en/rent/apartment/neuchatel/chaux-fonds/pro-immob-119/for-rent-apartment-2300-chaux-fonds-19080200005-1319447
193;2;La Chaux-de-Fonds, Rue Louis-Agassiz 8;860;47.0971946;6.8121954;Neuchatel;https://www.immobilier.ch/en/rent/apartment/neuchatel/chaux-fonds/service-batiments-logement-1982/rue-louis-agassiz-8-apartment-1st-east-1391447
194;5.5;Cressier NE, Route de Neuchâtel 2;2150;47.0519496;7.0380640;Neuchatel;https://www.immobilier.ch/en/rent/apartment/neuchatel/cressier-ne/marti-gerance-conseils-1805/-1331543
195;3.5;La Chaux-de-Fonds, rue de la Serre 77;920;47.0999106;6.8239695;Neuchatel;https://www.immobilier.ch/en/rent/apartment/neuchatel/chaux-fonds/espace-habitat-1727/charming-35-room-apartment-for-rent-in-the-heart-of-the-city-center-1338167
196;2.5;La Chaux-de-Fonds, Daniel-Jeanrichard 7;1100;47.1014850;6.8291210;Neuchatel;https://www.immobilier.ch/en/rent/apartment/neuchatel/chaux-fonds/gerance-charles-berset-136/04543-2-room-apartment-daniel-jeanrichard-7-chaux-fonds-65303
197;N/A;La Chaux-de-Fonds, Abraham-Robert 39;970;47.0893072;6.8209479;Neuchatel;https://www.immobilier.ch/en/rent/apartment/neuchatel/chaux-fonds/isabelle-cornu-pehlivanlar-1892/bright-4-room-and-35-room-apartments-quiet-neighborhood-and-building-parking-space-and-710711
198;4;La Chaux-de-Fonds, Paix 85;1300;47.1156304;6.8388774;Neuchatel;https://www.immobilier.ch/en/rent/apartment/neuchatel/chaux-fonds/bolliger-immobilier-111/beautiful-4-room-apartment-for-rent-1386972
199;2;Neuchâtel, Rue de l'Eglise 2;1348;46.9947543;6.9422871;Neuchatel;https://www.immobilier.ch/en/rent/apartment/neuchatel/neuchatel/naef-immobilier-neuchatel-115/appartement-1388796
200;3.5;Le Locle, Hôtel-de-Ville 18;900;47.0558360;6.7455340;Neuchatel;https://www.immobilier.ch/en/rent/apartment/neuchatel/locle/gerance-cpcn-2497/beautiful-35-room-apartment-with-enclosed-balcony-1390620
201;4.5;La Chaux-de-Fonds, Place du Marché 2;1590;47.1043021;6.8315598;Neuchatel;https://www.immobilier.ch/en/rent/apartment/neuchatel/chaux-fonds/bd-gerance-bienne-1756/beautiful-45-room-apartment-for-rent-in-chaux-fonds-for-01092025-1326012
202;5.5;Neuchâtel, Rue Paul-Bouvier 3;1880;47.0043664;6.9570063;Neuchatel;https://www.immobilier.ch/en/rent/apartment/neuchatel/neuchatel/livit-ag-real-estate-management-675/spacious-and-bright-accommodation-1116828
203;4;La Chaux-de-Fonds, Temple-Allemand 63;1160;47.1029360;6.8229250;Neuchatel;https://www.immobilier.ch/en/rent/apartment/neuchatel/chaux-fonds/gerance-charles-berset-136/01127-four-room-apartment-temple-allemand-63-chaux-fonds-45756
204;3;La Chaux-de-Fonds, Rue Cernil-Antoine 10;900;47.0979661;6.8147523;Neuchatel;https://www.immobilier.ch/en/rent/apartment/neuchatel/chaux-fonds/bolliger-immobilier-111/-1265148
205;5;Peseux, Rue des Granges 11;1600;46.9880894;6.8887598;Neuchatel;https://www.immobilier.ch/en/rent/apartment/neuchatel/peseux/naef-immobilier-neuchatel-115/tres-joli-appartement-55-pieces-situe-rue-granges-11-peseux-1127868
206;4;Neuchâtel, Rue des Beaux-Arts 1;1600;46.9921635;6.9360366;Neuchatel;https://www.immobilier.ch/en/rent/apartment/neuchatel/neuchatel/service-gerance-logement-ville-neuchatel-2648/4-room-duplex-apartment-1343388
207;2;La Chaux-de-Fonds, Rue Louis-Agassiz 12;750;47.0967635;6.8119054;Neuchatel;https://www.immobilier.ch/en/rent/apartment/neuchatel/chaux-fonds/service-batiments-logement-1982/rue-louis-agassiz-12-3rd-floor-east-apartment-864577
208;2.5;Le Locle, Rue Girardet 60;560;47.0620741;6.7559527;Neuchatel;https://www.immobilier.ch/en/rent/apartment/neuchatel/locle/hypoimmo-950/nice-25-room-apartment-1387777
209;2;La Chaux-de-Fonds, Crêt 1;640;47.1019547;6.8345258;Neuchatel;https://www.immobilier.ch/en/rent/apartment/neuchatel/chaux-fonds/isabelle-cornu-pehlivanlar-1892/chaux-fonds-2-rooms-682369
210;4;La Chaux-de-Fonds, Jaquet-Droz 39;1100;47.1004100;6.8283030;Neuchatel;https://www.immobilier.ch/en/rent/apartment/neuchatel/chaux-fonds/gerance-charles-berset-136/00441-4-room-apartment-jaquet-droz-39-chaux-fonds-64417
211;3.5;Le Locle, Rue Bournot 17b;973;47.0572108;6.7497955;Neuchatel;https://www.immobilier.ch/en/rent/apartment/neuchatel/locle/poste-immobilier-ms-1735/beautiful-35-room-apartment-on-the-2nd-floor-for-rent-in-locle-no-3-ideally-located-1358881
212;3;Valangin, Place de la Collégiale 1;1100;47.0159490;6.9065890;Neuchatel;https://www.immobilier.ch/en/rent/apartment/neuchatel/valangin/michel-wolf-1108/beautiful-3-room-apartment-in-valangin-1363430
213;2;Neuchâtel, Rue de la Dîme 58;990;47.0093876;6.9648101;Neuchatel;https://www.immobilier.ch/en/rent/apartment/neuchatel/neuchatel/wincasa-siege-602/quiet-area-722630
214;4;Les Geneveys-sur-Coffrane, Rue des Prés 7;1100;47.0150960;6.8532170;Neuchatel;https://www.immobilier.ch/en/rent/apartment/neuchatel/les-geneveys-coffrane/ribaux-von-kessel-services-immobiliers-117/apartment-in-les-geneveys-coffrane-1152998
215;2;La Chaux-de-Fonds, Numa-Droz 208;560;47.0946478;6.8113004;Neuchatel;https://www.immobilier.ch/en/rent/apartment/neuchatel/chaux-fonds/fidimmobil-118/for-rent-apartment-2300-chaux-fonds-h120401-1376774
216;3.5;La Chaux-de-Fonds, Avenue Léopold-Robert 146 - Entrée est;1160;47.0947979;6.8159759;Neuchatel;https://www.immobilier.ch/en/rent/apartment/neuchatel/chaux-fonds/pro-immob-119/for-rent-apartment-2300-chaux-fonds-19320100206-1376966
217;4.5;La Chaux-de-Fonds, Rue du Cygne 8;1999;47.1016108;6.8265604;Neuchatel;https://www.immobilier.ch/en/rent/apartment/neuchatel/chaux-fonds/gerofinance-agences-location-2217/spacious-modern-45-room-apartment-located-in-the-city-center-1380326
218;4.5;La Chaux-de-Fonds, Rue du Cygne 8;2270;47.1016108;6.8265604;Neuchatel;https://www.immobilier.ch/en/rent/apartment/neuchatel/chaux-fonds/grand-chasseral-immo-698/spacious-45-room-apartment-in-the-heart-of-chaux-fonds-1383590
219;2.5;La Chaux-de-Fonds, Avenue Léopold-Robert 145b;1025;47.0951723;6.8177856;Neuchatel;https://www.immobilier.ch/en/rent/apartment/neuchatel/chaux-fonds/pro-immob-119/for-rent-apartment-2300-chaux-fonds-19080200205-1319462
220;2;Neuchâtel, Maladière 8;865;46.9953611;6.9408155;Neuchatel;https://www.immobilier.ch/en/rent/apartment/neuchatel/neuchatel/naef-immobilier-neuchatel-115/appartement-2-pieces-2-pas-centre-ville-neuchatel-gare-neuchatel-1392710
221;3;Neuchâtel, Rue Pierre-à-Mazel 11;1353;46.9952319;6.9418248;Neuchatel;https://www.immobilier.ch/en/rent/apartment/neuchatel/neuchatel/naef-immobilier-neuchatel-115/appartement-1324358
222;3.5;Neuchâtel, Denis-de-Rougemont 28;1350;47.0009806;6.9182953;Neuchatel;https://www.immobilier.ch/en/rent/apartment/neuchatel/neuchatel/naef-immobilier-neuchatel-115/appartement-1262054
223;4;La Chaux-de-Fonds, Charrière 44;940;47.1101555;6.8330827;Neuchatel;https://www.immobilier.ch/en/rent/apartment/neuchatel/chaux-fonds/gerance-charles-berset-136/00047-4-room-apartment-1st-east-charriere-44-chaux-fonds-474086
224;3.5;Marin-Epagnier, Rue du Mouson 4;1390;47.0103674;6.9949552;Neuchatel;https://www.immobilier.ch/en/rent/apartment/neuchatel/marin-epagnier/michel-wolf-1108/beautiful-3-room-apartment-in-marin-epagnier-fully-renovated-1338278
225;3.5;La Chaux-de-Fonds, Rue Philippe-Henri-Mathey 20;1100;47.1109846;6.8281299;Neuchatel;https://www.immobilier.ch/en/rent/apartment/neuchatel/chaux-fonds/b2p-959/for-rent-apartment-2300-chaux-fonds-phm20-35pcs-3eme-1268486
226;4.5;Le Locle, france 14;1500;47.0579945;6.7478515;Neuchatel;https://www.immobilier.ch/en/rent/apartment/neuchatel/locle/peruccio-gerance-1335/france-14-45-rooms-1269830
227;3.5;Le Locle, Malakoff 24;680;47.0602960;6.7566434;Neuchatel;https://www.immobilier.ch/en/rent/apartment/neuchatel/locle/bolliger-immobilier-111/very-nice-bright-accommodation-1160715
228;3;Le Locle, Route du Communal 12;910;47.0525888;6.7542827;Neuchatel;https://www.immobilier.ch/en/rent/apartment/neuchatel/locle/gerance-cpcn-2497/renovated-3-room-apartment-with-balcony-1383243
229;1;Peseux, Rue des Combes 1;255;46.9892192;6.8935230;Neuchatel;https://www.immobilier.ch/en/rent/apartment/neuchatel/peseux/naef-immobilier-neuchatel-115/chambre-1384203
230;4.5;2300 La Chaux-de-Fonds, Contact agency for the address;1370;47.1182853;6.8425219;Neuchatel;https://www.immobilier.ch/en/rent/apartment/neuchatel/chaux-fonds/betterhomes-schweiz-ag-611/close-to-the-city-center-1387467
231;3;La Chaux-de-Fonds, Rue de la République 3;900;47.0979861;6.8325330;Neuchatel;https://www.immobilier.ch/en/rent/apartment/neuchatel/chaux-fonds/service-batiments-logement-1982/rue-republique-3-apartment-on-the-4th-floor-west-1388811
232;4.5;Le Locle, Chemin des Carabiniers 1;975;47.0488824;6.7370361;Neuchatel;https://www.immobilier.ch/en/rent/apartment/neuchatel/locle/gerance-cpcn-2497/chemin-carabiniers-1-45-rooms-on-the-4th-floor-north-side-renovated-1391787
233;2;La Chaux-de-Fonds, Doubs 129;530;47.1022330;6.8209970;Neuchatel;https://www.immobilier.ch/en/rent/apartment/neuchatel/chaux-fonds/gerance-charles-berset-136/-32043
234;3.5;La Chaux-de-Fonds, Rue de la Paix 19 Siggen;1100;47.1034711;6.8270092;Neuchatel;https://www.immobilier.ch/en/rent/apartment/neuchatel/chaux-fonds/bolliger-immobilier-111/spacious-accommodation-with-large-balcony-1253739
235;4.5;La Chaux-de-Fonds, Hôtel de ville 55;1000;47.1031716;6.8329075;Neuchatel;https://www.immobilier.ch/en/rent/apartment/neuchatel/chaux-fonds/fidimmobil-118/for-rent-apartment-2300-chaux-fonds-e670301-899595
236;2;Les Brenets, Rue de la Gare 13;N/A;47.0667066;6.7061162;Neuchatel;https://www.immobilier.ch/en/rent/apartment/neuchatel/les-brenets/alterimo-sarl-2512/for-rent-new-projects-apartment-2416-les-brenets-les-brenets-appt-libre-1117419
237;2;Neuchâtel, Rue de Maillefer 21;982;46.9870335;6.9083086;Neuchatel;https://www.immobilier.ch/en/rent/apartment/neuchatel/neuchatel/naef-immobilier-neuchatel-115/2-room-apartment-near-the-city-center-of-neuchatel-1262955
238;4;Le Locle, Rue du Marais 13;700;47.0602795;6.7534889;Neuchatel;https://www.immobilier.ch/en/rent/apartment/neuchatel/locle/naef-immobilier-chaux-fonds-121/appartement-4-pieces-3e-etage-1127595
239;2.5;La Chaux-de-Fonds, Promenade 13;715;47.1007934;6.8333232;Neuchatel;https://www.immobilier.ch/en/rent/apartment/neuchatel/chaux-fonds/gerance-charles-berset-136/04880-25-room-apartment-promenade-13-chaux-fonds-420555
240;3;Neuchâtel, Rue de Champréveyres 16;1220;47.0069367;6.9646187;Neuchatel;https://www.immobilier.ch/en/rent/apartment/neuchatel/neuchatel/wincasa-siege-602/close-to-motorway-access-1352907
241;4.5;Neuchâtel, Falaises 66;2700;47.0019752;6.9593207;Neuchatel;https://www.immobilier.ch/en/rent/apartment/neuchatel/neuchatel/wincasa-siege-602/rental-with-free-deposit-712779
242;1.5;Le Locle, Rue Bournot 33;800;47.0562825;6.7477540;Neuchatel;https://www.immobilier.ch/en/rent/apartment/neuchatel/locle/bolliger-immobilier-111/nice-accommodation-close-to-all-amenities-1092592
243;3;La Chaux-de-Fonds, Rue du Nord 135;770;47.1027911;6.8210258;Neuchatel;https://www.immobilier.ch/en/rent/apartment/neuchatel/chaux-fonds/pro-immob-119/for-rent-apartment-2300-chaux-fonds-19500100402-1387312
244;4.5;La Chaux-de-Fonds, Rue Fritz-Courvoisier 21;1060;47.1043636;6.8352291;Neuchatel;https://www.immobilier.ch/en/rent/apartment/neuchatel/chaux-fonds/b2p-959/for-rent-apartment-2300-chaux-fonds-fritz21-45pcs-rez-1388464
245;4.5;La Chaux-de-Fonds, Rue du Locle 38;1360;47.0914207;6.8101210;Neuchatel;https://www.immobilier.ch/en/rent/apartment/neuchatel/chaux-fonds/naef-immobilier-chaux-fonds-121/appartement-1269232
246;3.5;Neuchâtel, Rue de la Perriere 11;1420;46.9833369;6.8999657;Neuchatel;https://www.immobilier.ch/en/rent/apartment/neuchatel/neuchatel/wincasa-siege-602/superb-modern-35-room-apartment-on-the-ground-floor-1272976
247;4;Neuchâtel, Rue de Dîme 56;1105;46.9985240;6.9315795;Neuchatel;https://www.immobilier.ch/en/rent/apartment/neuchatel/neuchatel/apleona-schweiz-ag-670/beautiful-bright-4-room-apartment-with-balcony-and-lake-view-1345744
248;3.5;La Chaux-de-Fonds, Neuve 12;925;47.1034223;6.8306951;Neuchatel;https://www.immobilier.ch/en/rent/apartment/neuchatel/chaux-fonds/bolliger-immobilier-111/apartment-near-the-market-square-1006997
249;2.5;La Chaux-de-Fonds, Place de la Gare 4a;1000;47.0990218;6.8259206;Neuchatel;https://www.immobilier.ch/en/rent/apartment/neuchatel/chaux-fonds/service-batiments-logement-1982/apartment-with-framework-place-gare-4a-25-room-apartment-1021589
250;4;La Chaux-de-Fonds, Rue Louis-Agassiz 8;1200;47.0971946;6.8121954;Neuchatel;https://www.immobilier.ch/en/rent/apartment/neuchatel/chaux-fonds/service-batiments-logement-1982/rue-louis-agassiz-8-2nd-east-apartment-1387157
251;4.5;Neuchâtel, Fbg du Lac 35;1870;46.9938083;6.9357079;Neuchatel;https://www.immobilier.ch/en/rent/apartment/neuchatel/neuchatel/wincasa-siege-602/spacious-45-room-apartment-in-the-heart-of-neuchatel-free-deposit-1387637
252;3;2416 Les Brenets, Contact agency for the address;1050;47.0685112;6.7040755;Neuchatel;https://www.immobilier.ch/en/rent/apartment/neuchatel/les-brenets/betterhomes-schweiz-ag-611/completely-renovated-1-net-rent-offered-1391765
253;1;Neuchâtel, Rue des Moulins 4;850;46.9919021;6.9285816;Neuchatel;https://www.immobilier.ch/en/rent/apartment/neuchatel/neuchatel/fidimmobil-118/for-rent-apartment-2000-neuchatel-1490409-1392053
254;2;La Chaux-de-Fonds, Biaufond 18;650;47.1137770;6.8430521;Neuchatel;https://www.immobilier.ch/en/rent/apartment/neuchatel/chaux-fonds/bolliger-immobilier-111/2-room-apartment-close-to-amenities-1190069
255;4.5;Neuchâtel, Rue des Vignolants 29;2135;47.0074654;6.9634204;Neuchatel;https://www.immobilier.ch/en/rent/apartment/neuchatel/neuchatel/helvetia-assurances-gerance-imobiliere-neuchatel-1223/would-you-like-to-live-in-renovated-apartment-1264181
256;4.5;Marin-Epagnier, Louis-de-Meuron 4;1600;47.0095463;6.9992783;Neuchatel;https://www.immobilier.ch/en/rent/apartment/neuchatel/marin-epagnier/naef-immobilier-neuchatel-115/beautiful-duplex-located-in-quiet-neighborhood-of-marin-1127765
257;5.5;Boudry, Rue Louis Favre 40;1600;46.9489145;6.8356898;Neuchatel;https://www.immobilier.ch/en/rent/apartment/neuchatel/boudry/patrimoine-gerance-125/magnificent-renovated-55-room-apartment-1128341
258;2;Le Locle, Malakoff 22;710;47.0603660;6.7567509;Neuchatel;https://www.immobilier.ch/en/rent/apartment/neuchatel/locle/bolliger-immobilier-111/beautiful-bright-apartment-913685
259;3.5;Neuchâtel, Rue des Vignolants 6;1500;47.0076663;6.9644071;Neuchatel;https://www.immobilier.ch/en/rent/apartment/neuchatel/neuchatel/wincasa-siege-602/1st-net-rent-offered-renovated-35-room-apartment-with-free-deposit-1208789
260;2;La Chaux-de-Fonds, Doubs 129;498;47.1022326;6.8209940;Neuchatel;https://www.immobilier.ch/en/rent/apartment/neuchatel/chaux-fonds/gerance-charles-berset-136/00235-2-room-apartment-doubs-129-chaux-fonds-853781
261;N/A;La Chaux-de-Fonds, Léopold-Robert 61;880;47.1000584;6.8253608;Neuchatel;https://www.immobilier.ch/en/rent/apartment/neuchatel/chaux-fonds/gerance-charles-berset-136/05399-apartment-leopold-robert-61-chaux-fonds-1070261
262;1;2014 Bôle, Contact agency for the address;1550;46.9681725;6.8457817;Neuchatel;https://www.immobilier.ch/en/rent/apartment/neuchatel/bole/properti-ag-2229/modern-and-renovated-loft-in-bole-with-charm-view-and-sunshine-1366938
263;5.5;Le Locle, Chemin des Eroges 6;1450;47.0531640;6.7333820;Neuchatel;https://www.immobilier.ch/en/rent/apartment/neuchatel/locle/hypoimmo-950/splendid-55-room-duplex-close-to-nature-in-locle-1367802
264;1.5;La Chaux-de-Fonds, Rue de la Charrière 73B;530;47.1126022;6.8355997;Neuchatel;https://www.immobilier.ch/en/rent/apartment/neuchatel/chaux-fonds/les-regisseurs-loeffel-1013/spacious-with-stunning-views-1009818
265;3;La Chaux-de-Fonds, Rue du Commerce 91;618;47.0935516;6.8188487;Neuchatel;https://www.immobilier.ch/en/rent/apartment/neuchatel/chaux-fonds/bolliger-immobilier-111/apartment-with-balcony-in-quiet-area-1368378
266;3;Cortaillod, Chemin Polonais 10;1225;46.9455960;6.8439671;Neuchatel;https://www.immobilier.ch/en/rent/apartment/neuchatel/cortaillod/naef-immobilier-neuchatel-115/appartement-1369818
267;3;Boudry, Avenue du Collège 11;1290;46.9497907;6.8389409;Neuchatel;https://www.immobilier.ch/en/rent/apartment/neuchatel/boudry/offidus-regie-immobiliere-124/02518-3-room-duplex-apartment-avenue-college-11-boudry-1370682
268;3;Neuchâtel, Rue de Grise-Pierre 9;1290;46.9855758;6.9091066;Neuchatel;https://www.immobilier.ch/en/rent/apartment/neuchatel/neuchatel/naef-immobilier-neuchatel-115/appartement-1375770
269;3.5;Neuchâtel, Rue des Parcs 111;1150;46.9914419;6.9170230;Neuchatel;https://www.immobilier.ch/en/rent/apartment/neuchatel/neuchatel/fidimmobil-118/for-rent-apartment-2000-neuchatel-3560502-1307034
270;4.5;La Chaux-de-Fonds, Numa-Droz 115;900;47.1135318;6.8389514;Neuchatel;https://www.immobilier.ch/en/rent/apartment/neuchatel/chaux-fonds/gerance-charles-berset-136/02702-the-first-2-months-of-net-rent-are-free-numa-droz-115-chaux-fonds-92922
271;3;La Chaux-de-Fonds, Crêt 16;650;47.1026343;6.8363013;Neuchatel;https://www.immobilier.ch/en/rent/apartment/neuchatel/chaux-fonds/bolliger-immobilier-111/nice-apartment-close-to-all-amenities-1108506
272;4.5;Neuchâtel, Place des Halles 8;2900;46.9905317;6.9280847;Neuchatel;https://www.immobilier.ch/en/rent/apartment/neuchatel/neuchatel/fidimmobil-118/for-rent-apartment-2000-neuchatel-g890301-1332282
273;2;Neuchâtel, Rue des Battieux 11;945;46.9834130;6.9015440;Neuchatel;https://www.immobilier.ch/en/rent/apartment/neuchatel/neuchatel/optigestion-services-immobiliers-126/1st-rent-free-1262586
274;3;La Chaux-de-Fonds, Rue des Fleurs 24;900;47.1080256;6.8328400;Neuchatel;https://www.immobilier.ch/en/rent/apartment/neuchatel/chaux-fonds/espace-habitat-1727/for-rent-3-room-apartment-on-the-2nd-floor-rue-fleurs-24-chaux-fonds-1335450
275;5;Boudry, Faubourg Philippe-Suchard 26;1850;46.9549554;6.8330737;Neuchatel;https://www.immobilier.ch/en/rent/apartment/neuchatel/boudry/optigestion-services-immobiliers-126/fully-renovated-5-room-apartment-1283226
276;1;Neuchâtel, Rue des Flandres 5;937;46.9904403;6.9288336;Neuchatel;https://www.immobilier.ch/en/rent/apartment/neuchatel/neuchatel/optigestion-services-immobiliers-126/studio-in-the-heart-of-downtown-1359738
277;5.5;Le Locle, Billodes 27;1370;47.0553101;6.7418951;Neuchatel;https://www.immobilier.ch/en/rent/apartment/neuchatel/locle/bolliger-immobilier-111/beautiful-55-room-apartment-1145082
278;4.5;Colombier NE, Ruaux 4;2150;46.9699224;6.8640958;Neuchatel;https://www.immobilier.ch/en/rent/apartment/neuchatel/colombier-ne/eugene-herschdorfer-gerance-immobiliere-2515/new-45-room-apartment-1377823
279;2.5;La Chaux-de-Fonds, Résidence Helvétie 87;700;47.0891638;6.8194363;Neuchatel;https://www.immobilier.ch/en/rent/apartment/neuchatel/chaux-fonds/gerance-cpcn-2497/25-room-apartment-in-quiet-area-1378207
280;3.5;Le Locle, Rue des Jeannerets 17;840;47.0527111;6.7431306;Neuchatel;https://www.immobilier.ch/en/rent/apartment/neuchatel/locle/fidimmobil-118/for-rent-apartment-2400-locle-h580302-1171519
281;3.5;La Chaux-de-Fonds, Avenue Léopold-Robert 23;1340;47.1020575;6.8292926;Neuchatel;https://www.immobilier.ch/en/rent/apartment/neuchatel/chaux-fonds/naef-immobilier-chaux-fonds-121/appartement-1318015
282;2.5;La Chaux-de-Fonds, Avenue Léopold-Robert 145b;1115;47.0951723;6.8177856;Neuchatel;https://www.immobilier.ch/en/rent/apartment/neuchatel/chaux-fonds/pro-immob-119/for-rent-apartment-2300-chaux-fonds-19080200203-1319455
283;3.5;La Chaux-de-Fonds, Rue du Progrès 4;1260;47.1070758;6.8296085;Neuchatel;https://www.immobilier.ch/en/rent/apartment/neuchatel/chaux-fonds/pro-immob-119/for-rent-apartment-2300-chaux-fonds-19420200101-1248895
284;3;Marin-Epagnier, Rue des Curtils 8;1060;47.0071576;7.0052775;Neuchatel;https://www.immobilier.ch/en/rent/apartment/neuchatel/marin-epagnier/fidimmobil-118/for-rent-apartment-2074-marin-epagnier-c650201-1338463
285;4;La Chaux-de-Fonds, Rue du Doubs 29;1100;47.1067534;6.8278328;Neuchatel;https://www.immobilier.ch/en/rent/apartment/neuchatel/chaux-fonds/bolliger-immobilier-111/magnificent-apartment-on-the-gable-of-the-building-1056703
286;4;Le Locle, Rue de France 9;950;47.0560675;6.7451626;Neuchatel;https://www.immobilier.ch/en/rent/apartment/neuchatel/locle/hypoimmo-950/completely-renovated-4-room-apartment-in-locle-1353823
287;2.5;La Chaux-de-Fonds, Jacob-Brandt 78;1090;47.0941866;6.8200762;Neuchatel;https://www.immobilier.ch/en/rent/apartment/neuchatel/chaux-fonds/fidimmobil-118/for-rent-apartment-2300-chaux-fonds-h470003-1355743
288;4.5;La Chaux-de-Fonds, Croix Fédérale 44;1435;47.1055744;6.8428965;Neuchatel;https://www.immobilier.ch/en/rent/apartment/neuchatel/chaux-fonds/wincasa-siege-602/spacious-45-room-apartment-with-stunning-views-free-deposit-433028
289;2;La Chaux-de-Fonds, Rue de Bel-Air 14;650;47.1077933;6.8301571;Neuchatel;https://www.immobilier.ch/en/rent/apartment/neuchatel/chaux-fonds/gerance-charles-berset-136/05704-2-room-apartment-rue-bel-air-14-chaux-fonds-1223012
290;4;Le Locle, France 29;500;47.0584552;6.7478713;Neuchatel;https://www.immobilier.ch/en/rent/apartment/neuchatel/locle/peruccio-gerance-1335/france-29-4-room-apartment-1233380
291;3;Buttes, Possena 1;650;46.8891296;6.5519735;Neuchatel;https://www.immobilier.ch/en/rent/apartment/neuchatel/buttes/reysus-gerance-1551/possena-1-in-buttes-3-rooms-on-the-1st-floor-1306244
292;4.5;La Chaux-de-Fonds, Rue du Locle 38;1468;47.0914207;6.8101210;Neuchatel;https://www.immobilier.ch/en/rent/apartment/neuchatel/chaux-fonds/naef-immobilier-chaux-fonds-121/appartement-1306916
293;4;Le Locle, Rue de la Côte 12;900;47.0573391;6.7465833;Neuchatel;https://www.immobilier.ch/en/rent/apartment/neuchatel/locle/hypoimmo-950/bright-4-room-apartment-in-the-city-center-1313636
294;3.5;2300 La Chaux-de-Fonds, Contact agency for the address;1250;47.1177387;6.8398871;Neuchatel;https://www.immobilier.ch/en/rent/apartment/neuchatel/chaux-fonds/betterhomes-schweiz-ag-611/bathed-in-light-spacious-and-brand-new-1392356
295;3;La Chaux-de-Fonds, Biaufond 18;890;47.1153890;6.8461472;Neuchatel;https://www.immobilier.ch/en/rent/apartment/neuchatel/chaux-fonds/bolliger-immobilier-111/beautiful-bright-apartment-1191620
296;3;La Chaux-de-Fonds, Parc 81;950;47.0994474;6.8223103;Neuchatel;https://www.immobilier.ch/en/rent/apartment/neuchatel/chaux-fonds/gerance-charles-berset-136/00900-3-bedroom-apartment-park-81-chaux-fonds-263108
297;3;Le Locle, Rue des Jeanneret 49;615;47.0507093;6.7391197;Neuchatel;https://www.immobilier.ch/en/rent/apartment/neuchatel/locle/bd-gerance-bienne-1756/35-room-apartment-for-rent-in-locle-1276772
298;1;Neuchâtel, Chavannes 19;747;46.9928527;6.9294473;Neuchatel;https://www.immobilier.ch/en/rent/apartment/neuchatel/neuchatel/rt-immo-712/renovated-studio-in-the-city-center-1357988
299;4;Neuchâtel, Avenue du Vignoble 2;2008;47.0059115;6.9570896;Neuchatel;https://www.immobilier.ch/en/rent/apartment/neuchatel/neuchatel/naef-immobilier-neuchatel-115/appartement-1383273
300;3.5;Le Locle, Rue du Crêt-Vaillant 9;800;47.0610524;6.7537981;Neuchatel;https://www.immobilier.ch/en/rent/apartment/neuchatel/locle/bolliger-immobilier-111/magnificent-accommodation-with-nice-and-large-kitchen-883785
301;3.5;La Chaux-de-Fonds, rue de la Charrière 68;1000;47.1085658;6.8312196;Neuchatel;https://www.immobilier.ch/en/rent/apartment/neuchatel/chaux-fonds/ellipsis-710/beautiful-35-room-apartment-1314825
302;3;La Chaux-de-Fonds, Rue du Commerce 107;820;47.0923500;6.8170270;Neuchatel;https://www.immobilier.ch/en/rent/apartment/neuchatel/chaux-fonds/service-batiments-logement-1982/completely-renovated-apartment-rue-commerce-107-4th-center-apartment-1028361
303;4.5;La Brévine, Village 170;1200;46.9795739;6.6067473;Neuchatel;https://www.immobilier.ch/en/rent/apartment/neuchatel/brevine/hypoimmo-950/45-room-apartment-in-brevine-1388745
304;2;La Chaux-de-Fonds, Rue de la Tuilerie 12;750;47.1116079;6.8331896;Neuchatel;https://www.immobilier.ch/en/rent/apartment/neuchatel/chaux-fonds/service-batiments-logement-1982/rue-tuilerie-12-upper-ground-floor-apartment-center-1318569
305;2.5;La Chaux-de-Fonds, Avenue Léopold-Robert 145b;1025;47.0951723;6.8177856;Neuchatel;https://www.immobilier.ch/en/rent/apartment/neuchatel/chaux-fonds/pro-immob-119/for-rent-apartment-2300-chaux-fonds-19080200306-1325289
306;3.5;La Chaux-de-Fonds, Chemin Fantaisie 4;1490;47.0941649;6.8250720;Neuchatel;https://www.immobilier.ch/en/rent/apartment/neuchatel/chaux-fonds/gerance-cpcn-2497/very-beautiful-35-room-apartment-completely-new-with-balcony-loggia-1289001
307;2;Le Locle, Georges-Perrenoud 36;660;47.0635657;6.7578519;Neuchatel;https://www.immobilier.ch/en/rent/apartment/neuchatel/locle/wohnplus-ag-2710/renovated-ideal-location-1374670
308;1;Cortaillod, Chemin de Pré-Gaillard 8;680;46.9515097;6.8520298;Neuchatel;https://www.immobilier.ch/en/rent/apartment/neuchatel/cortaillod/ribaux-von-kessel-services-immobiliers-117/apartment-in-cortaillod-with-neighborhood-view-803662
309;3.5;Le Landeron, Route de la Neuveville 43 B;1200;47.0581229;7.0731016;Neuchatel;https://www.immobilier.ch/en/rent/apartment/neuchatel/landeron/naef-immobilier-neuchatel-115/2-weeks-of-net-rent-free-beautiful-35-room-apartment-with-balcony-in-landeron-1319758
310;4.5;Neuchâtel, Rue du Musée 7;2385;46.9892338;6.9301809;Neuchatel;https://www.immobilier.ch/en/rent/apartment/neuchatel/neuchatel/fidimmobil-118/for-rent-apartment-2000-neuchatel-6510301-397582
311;3.5;Les Brenets, Grand'Rue 9;1270;47.0679993;6.7049912;Neuchatel;https://www.immobilier.ch/en/rent/apartment/neuchatel/les-brenets/pro-immob-119/for-rent-apartment-2416-les-brenets-90620100301-1258798
312;4.5;Le Locle, J.-F.-Houriet 5;830;47.0604855;6.7550152;Neuchatel;https://www.immobilier.ch/en/rent/apartment/neuchatel/locle/gerance-charles-berset-136/05600-4-room-apartment-j-f-houriet-5-locle-1117006
313;4.5;Neuchâtel, Rue du Tertre 10;2295;46.9943795;6.9304387;Neuchatel;https://www.immobilier.ch/en/rent/apartment/neuchatel/neuchatel/littoral-gerance-127/45-room-apartment-on-the-3rd-floor-1191598
314;4.5;La Chaux-de-Fonds, Grenier 26;820;47.1011502;6.8315568;Neuchatel;https://www.immobilier.ch/en/rent/apartment/neuchatel/chaux-fonds/gerance-charles-berset-136/04760-first-net-rent-free-attic-26-chaux-fonds-857038
315;3.5;La Chaux-de-Fonds, Rue de la Serre 96;930;47.0985835;6.8214217;Neuchatel;https://www.immobilier.ch/en/rent/apartment/neuchatel/chaux-fonds/patrimoine-gerance-125/renovated-35-room-apartment-1367507
316;3.5;Boudry, Passage Blaise Cendrars 23;1480;46.9566160;6.8382230;Neuchatel;https://www.immobilier.ch/en/rent/apartment/neuchatel/boudry/livit-ag-real-estate-management-675/comfort-and-tranquility-in-green-area-151379
317;4;Le Locle, Envers 48;980;47.0556607;6.7474111;Neuchatel;https://www.immobilier.ch/en/rent/apartment/neuchatel/locle/fidimmobil-118/for-rent-apartment-2400-locle-3620101-873011
318;1;Neuchâtel, Rue de l'Ecluse 38;890;46.9926972;6.9249269;Neuchatel;https://www.immobilier.ch/en/rent/apartment/neuchatel/neuchatel/fidimmobil-118/for-rent-apartment-2000-neuchatel-e740250-1311635
319;4;Areuse, Chemin des Pinceleuses 2;1540;46.9527727;6.8536500;Neuchatel;https://www.immobilier.ch/en/rent/apartment/neuchatel/areuse/fidimmobil-118/for-rent-apartment-2015-areuse-3750101-1385555
320;3;Gorgier, Clos-Dessous 2;1110;46.9026972;6.7821222;Neuchatel;https://www.immobilier.ch/en/rent/apartment/neuchatel/gorgier/offidus-regie-immobiliere-124/00875-3-room-apartment-clos-dessous-2-gorgier-454259
321;5.5;La Chaux-de-Fonds, rue Fritz-Courvoisier 21;1230;47.1043636;6.8352291;Neuchatel;https://www.immobilier.ch/en/rent/apartment/neuchatel/chaux-fonds/b2p-959/55-room-duplex-apartment-in-chaux-fonds-1386131
322;3.5;Neuchâtel, Route des Gorges-du-Seyon 2;1180;46.9896187;6.9068381;Neuchatel;https://www.immobilier.ch/en/rent/apartment/neuchatel/neuchatel/fidimmobil-118/for-rent-apartment-2000-neuchatel-f130201-1387763
323;4.5;Boudry, Route de la Gare 13;1600;46.9544579;6.8355328;Neuchatel;https://www.immobilier.ch/en/rent/apartment/neuchatel/boudry/optigestion-services-immobiliers-126/beautiful-45-room-apartment-completely-renovated-1393331
324;3.5;Le Locle, Rue des Cardamines 17;920;47.0506547;6.7521019;Neuchatel;https://www.immobilier.ch/en/rent/apartment/neuchatel/locle/gerofinance-agences-location-2217/bright-35-room-apartment-with-balcony-1352531
325;3;La Chaux-de-Fonds, Rue du Bois-Noir 41;800;47.0925580;6.8074303;Neuchatel;https://www.immobilier.ch/en/rent/apartment/neuchatel/chaux-fonds/littoral-gerance-127/for-rent-3-room-apartment-on-the-2nd-floor-1288787
326;3.5;Peseux, Rue du Tombet 14;1690;46.9853606;6.8948708;Neuchatel;https://www.immobilier.ch/en/rent/apartment/neuchatel/peseux/bolliger-immobilier-111/splendid-high-standard-accommodation-1374744
327;2.5;La Chaux-de-Fonds, Avenue Léopold-Robert 145b;1045;47.0951723;6.8177856;Neuchatel;https://www.immobilier.ch/en/rent/apartment/neuchatel/chaux-fonds/pro-immob-119/for-rent-apartment-2300-chaux-fonds-19080200003-1319448
328;4.5;Neuchâtel, Rue des Vignolants 31;1945;47.0076189;6.9637700;Neuchatel;https://www.immobilier.ch/en/rent/apartment/neuchatel/neuchatel/helvetia-assurances-gerance-imobiliere-neuchatel-1223/treat-yourself-to-accommodation-with-lake-view-1325688
329;4.5;2206 Les Geneveys-sur-Coffrane, Contact agency for the address;1500;47.0226843;6.8569910;Neuchatel;https://www.immobilier.ch/en/rent/apartment/neuchatel/les-geneveys-coffrane/classicus-real-estate-1037/sublime-45-room-apartment-for-rent-1335768
330;3;La Chaux-de-Fonds, Rue du Nord 52;940;47.1070614;6.8269223;Neuchatel;https://www.immobilier.ch/en/rent/apartment/neuchatel/chaux-fonds/naef-immobilier-chaux-fonds-121/beau-logement-lumineux-balcon-jardin-commun-1127640
331;3.5;Neuchâtel, Rue Jean-Jacques-Lallemand 1;1750;46.9925891;6.9354871;Neuchatel;https://www.immobilier.ch/en/rent/apartment/neuchatel/neuchatel/service-gerance-logement-ville-neuchatel-2648/35-room-apartments-1345656
332;3.5;Neuchâtel, Rue de Dîme 56;1135;46.9968339;6.9376803;Neuchatel;https://www.immobilier.ch/en/rent/apartment/neuchatel/neuchatel/apleona-schweiz-ag-670/bright-3-room-apartment-with-balcony-and-lake-view-1345752
333;3;La Chaux-de-Fonds, Paix 85;1100;47.1157745;6.8472773;Neuchatel;https://www.immobilier.ch/en/rent/apartment/neuchatel/chaux-fonds/bolliger-immobilier-111/beautiful-3-room-apartment-next-to-the-station-1290072
334;4;Neuchâtel, Rue de l'Ecluse 61;1300;46.9922168;6.9218108;Neuchatel;https://www.immobilier.ch/en/rent/apartment/neuchatel/neuchatel/naef-immobilier-neuchatel-115/renovated-4-room-apartment-just-steps-from-downtown-1223005
335;3;La Chaux-de-Fonds, Rue Cernil-Antoine 9;730;47.0973880;6.8148708;Neuchatel;https://www.immobilier.ch/en/rent/apartment/neuchatel/chaux-fonds/fidimmobil-118/for-rent-apartment-2300-chaux-fonds-h271074-526141
336;3;La Chaux-de-Fonds, Rue Blaise-Cendrars 2;810;47.0904848;6.8054620;Neuchatel;https://www.immobilier.ch/en/rent/apartment/neuchatel/chaux-fonds/bolliger-immobilier-111/beautiful-accommodation-with-magnificent-view-1175965
337;2;Peseux, Grand'Rue 41;1000;46.9879809;6.8901867;Neuchatel;https://www.immobilier.ch/en/rent/apartment/neuchatel/peseux/service-gerance-logement-ville-neuchatel-2648/2-room-apartment-1391197
338;3;Cormondrèche, Grand-Rue 21;1400;46.9805710;6.8707658;Neuchatel;https://www.immobilier.ch/en/rent/apartment/neuchatel/cormondreche/naef-immobilier-neuchatel-115/coeur-village-cormondrche-proche-commodites-1343869
339;1.5;Le Locle, Henry-Grandjean 7;350;47.0559848;6.7475999;Neuchatel;https://www.immobilier.ch/en/rent/apartment/neuchatel/locle/gerance-cpcn-2497/ideal-apartment-for-students-1358653
340;3.5;La Chaux-de-Fonds, Numa-Droz 11;1050;47.1057223;6.8295826;Neuchatel;https://www.immobilier.ch/en/rent/apartment/neuchatel/chaux-fonds/fidimmobil-118/for-rent-duplex-two-level-2300-chaux-fonds-d050001-1233314
341;4.5;Auvernier, Chasselas 9;1590;46.9810663;6.8793571;Neuchatel;https://www.immobilier.ch/en/rent/apartment/neuchatel/auvernier/regie-immobiliere-jouval-113/magnificent-45-room-apartment-in-milvignes-with-lovely-view-of-the-lake-1378658
342;4.5;La Chaux-de-Fonds, Rue des Tourelles 21;4000;47.1020928;6.8180026;Neuchatel;https://www.immobilier.ch/en/rent/apartment/neuchatel/chaux-fonds/coucouco-2484/architectural-gem-with-period-charm-1092674
343;4;Le Locle, Bellevue 25;1050;47.0567710;6.7417307;Neuchatel;https://www.immobilier.ch/en/rent/apartment/neuchatel/locle/naef-immobilier-chaux-fonds-121/exceptionnel-atypique-superbe-4-pieces-poutres-apparentes-1166498
344;3.5;Le Locle, Henry-Grandjean 7;650;47.0559848;6.7475999;Neuchatel;https://www.immobilier.ch/en/rent/apartment/neuchatel/locle/gerance-cpcn-2497/apartment-located-in-the-city-center-close-to-amenities-1383842
345;3;La Chaux-de-Fonds, Rue Jardinière 77;950;47.1000799;6.8225986;Neuchatel;https://www.immobilier.ch/en/rent/apartment/neuchatel/chaux-fonds/grand-chasseral-immo-698/3-room-apartment-for-rent-well-located-and-close-to-amenities-1390850
346;4.5;Le Landeron, Route de la Neuveville 43 A;1290;47.0606046;7.0771858;Neuchatel;https://www.immobilier.ch/en/rent/apartment/neuchatel/landeron/naef-immobilier-neuchatel-115/45-room-apartment-on-the-ground-floor-1319714
347;2;Areuse, Chemin des Isles 7;790;46.9533843;6.8520600;Neuchatel;https://www.immobilier.ch/en/rent/apartment/neuchatel/areuse/optigestion-services-immobiliers-126/2-room-apartment-1391810
348;2.5;St-Blaise, Rue de la Musinière 9;1200;47.0114097;6.9915787;Neuchatel;https://www.immobilier.ch/en/rent/apartment/neuchatel/st-blaise/gpc-gerance-ppe-courtage-1582/rue-musiniere-9-st-blaise-25-room-apartment-on-the-2nd-floor-1331906
349;2;La Chaux-de-Fonds, Rue du Progrès 99a;940;47.1010383;6.8214184;Neuchatel;https://www.immobilier.ch/en/rent/apartment/neuchatel/chaux-fonds/ellipsis-710/charming-renovated-2-room-apartment-1269986
350;1;Neuchâtel, rue de la Dîme 72;400;47.0102435;6.9658544;Neuchatel;https://www.immobilier.ch/en/rent/apartment/neuchatel/neuchatel/service-gerance-logement-ville-neuchatel-2648/studio-on-the-3rd-floor-1346978
351;4.5;La Chaux-de-Fonds, Numa-Droz 7;1160;47.1059419;6.8299124;Neuchatel;https://www.immobilier.ch/en/rent/apartment/neuchatel/chaux-fonds/bolliger-immobilier-111/-1353794
352;5;Neuchâtel, Rue de Tivoli;1860;46.9835658;6.9062123;Neuchatel;https://www.immobilier.ch/en/rent/apartment/neuchatel/neuchatel/littoral-gerance-127/5-room-apartment-on-the-2nd-floor-1366983
353;3.5;Peseux, Corcelles 9;1400;46.9858306;6.8853634;Neuchatel;https://www.immobilier.ch/en/rent/apartment/neuchatel/peseux/fidimmobil-118/for-rent-apartment-2034-peseux-f360003-1376775
354;3.5;La Chaux-de-Fonds, Rue de la Charrière 64;1180;47.1114749;6.8344140;Neuchatel;https://www.immobilier.ch/en/rent/apartment/neuchatel/chaux-fonds/pro-immob-119/for-rent-apartment-2300-chaux-fonds-23320300101-1376967
355;3;La Chaux-de-Fonds, Hôtel-de-Ville 6;1100;47.1031716;6.8329075;Neuchatel;https://www.immobilier.ch/en/rent/apartment/neuchatel/chaux-fonds/gpc-gerance-ppe-courtage-1582/hotel-ville-6-chaux-fonds-744231
356;2.5;La Chaux-de-Fonds, Avenue Léopold-Robert 145b;950;47.0951723;6.8177856;Neuchatel;https://www.immobilier.ch/en/rent/apartment/neuchatel/chaux-fonds/pro-immob-119/for-rent-apartment-2300-chaux-fonds-19080200208-1319463
357;4.5;La Chaux-de-Fonds, Helvétie 77;1250;47.0900010;6.8184450;Neuchatel;https://www.immobilier.ch/en/rent/apartment/neuchatel/chaux-fonds/wincasa-siege-602/spacious-45-room-apartment-rental-with-free-deposit-245223
358;5.5;Neuchâtel, Rue de l'Evole 108;3010;46.9866002;6.9135469;Neuchatel;https://www.immobilier.ch/en/rent/apartment/neuchatel/neuchatel/gerance-cpcn-2497/fully-renovated-55-room-apartment-1393191
359;4;Neuchâtel, Chemin des Carrels 26;1350;46.9904492;6.8991487;Neuchatel;https://www.immobilier.ch/en/rent/apartment/neuchatel/neuchatel/naef-immobilier-neuchatel-115/bel-appartement-renove-recemment-magnifique-vue-lac-1324359
360;3;La Chaux-de-Fonds, Louis Agassiz 5;810;47.0970877;6.8126392;Neuchatel;https://www.immobilier.ch/en/rent/apartment/neuchatel/chaux-fonds/service-batiments-logement-1982/louis-agassiz-5-apartment-on-the-2nd-floor-west-753255
361;2;La Chaux-de-Fonds, Rue Cernil-Antoine 10;690;47.0979661;6.8147523;Neuchatel;https://www.immobilier.ch/en/rent/apartment/neuchatel/chaux-fonds/bolliger-immobilier-111/2-room-apartment-in-the-city-center-1296940
362;3.5;La Chaux-de-Fonds, Rue Numa-Droz 17;945;47.1055604;6.8292062;Neuchatel;https://www.immobilier.ch/en/rent/apartment/neuchatel/chaux-fonds/pro-immob-119/for-rent-apartment-2300-chaux-fonds-22950100301-1371724
363;1;Neuchâtel, Rue du Vauseyon 17;1100;46.9892589;6.9069127;Neuchatel;https://www.immobilier.ch/en/rent/apartment/neuchatel/neuchatel/regie-immobiliere-jouval-113/large-loft-style-studio-close-to-many-amenities-1381516
364;3.5;Le Locle, Henry-Grandjean 7;650;47.0559848;6.7475999;Neuchatel;https://www.immobilier.ch/en/rent/apartment/neuchatel/locle/gerance-cpcn-2497/beautiful-apartment-in-the-city-center-1383244
365;5;2416 Les Brenets, Contact agency for the address;1500;47.0662229;6.7110587;Neuchatel;https://www.immobilier.ch/en/rent/apartment/neuchatel/les-brenets/betterhomes-schweiz-ag-611/exceptional-offer-1-net-rent-free-1391692
366;3;La Chaux-de-Fonds, Avenue Charles-Naine 18;960;47.0924725;6.8080685;Neuchatel;https://www.immobilier.ch/en/rent/apartment/neuchatel/chaux-fonds/hypoimmo-950/beautiful-renovated-3-room-apartment-1261132
367;2;Neuchâtel, Seyon 20;840;46.9923095;6.9286347;Neuchatel;https://www.immobilier.ch/en/rent/apartment/neuchatel/neuchatel/naef-immobilier-neuchatel-115/appartement-situe-coeur-ville-zone-pietonne-1335532
368;4.5;Les Brenets, Guinand l'Opticien 4;850;47.0687215;6.7038917;Neuchatel;https://www.immobilier.ch/en/rent/apartment/neuchatel/les-brenets/euro-courtage-1236/for-rent-apartment-2416-les-brenets-5044000401109-1266412
369;3.5;La Chaux-de-Fonds, Léopold-Robert 76;1120;47.0989691;6.8230202;Neuchatel;https://www.immobilier.ch/en/rent/apartment/neuchatel/chaux-fonds/fidimmobil-118/for-rent-apartment-2300-chaux-fonds-c050204-1222097
370;1;Colombier NE, Saules 5;770;46.9680650;6.8653740;Neuchatel;https://www.immobilier.ch/en/rent/apartment/neuchatel/colombier-ne/gerance-charles-berset-136/00211-studio-1-room-willows-5-colombier-ne-294353
371;2;Le Locle, Rue Bournot 33;780;47.0562825;6.7477540;Neuchatel;https://www.immobilier.ch/en/rent/apartment/neuchatel/locle/bolliger-immobilier-111/renovated-accommodation-with-magnificent-view-1092593
372;4.5;Les Brenets, Grand'Rue 9;1170;47.0679993;6.7049912;Neuchatel;https://www.immobilier.ch/en/rent/apartment/neuchatel/les-brenets/pro-immob-119/for-rent-apartment-2416-les-brenets-90620100001-1387313
373;1;Neuchâtel, Maladière 8;600;46.9953611;6.9408155;Neuchatel;https://www.immobilier.ch/en/rent/apartment/neuchatel/neuchatel/naef-immobilier-neuchatel-115/studio-in-neuchatel-1392881
374;3.5;La Chaux-de-Fonds, Rue du Premier-Mars 6;1150;47.1048440;6.8308722;Neuchatel;https://www.immobilier.ch/en/rent/apartment/neuchatel/chaux-fonds/gerance-bosshart-gautschi-2839/appartement-1355729
375;3;La Chaux-de-Fonds, Rue de l'Industrie 7;650;47.1060154;6.8313347;Neuchatel;https://www.immobilier.ch/en/rent/apartment/neuchatel/chaux-fonds/naef-immobilier-chaux-fonds-121/appartement-3-pieces-proche-centre-ville-1304406
376;1;La Chaux-de-Fonds, Rue des Régionaux 11;1100;47.0994758;6.8294326;Neuchatel;https://www.immobilier.ch/en/rent/apartment/neuchatel/chaux-fonds/kuhn-construction-management-2518/95m2-loft-close-to-the-city-center-on-the-4th-floor-1377174
377;4.5;La Chaux-de-Fonds, Espacité 3;1440;47.1025607;6.8285471;Neuchatel;https://www.immobilier.ch/en/rent/apartment/neuchatel/chaux-fonds/wincasa-siege-602/located-in-the-espacite-complex-1380246
378;3;St-Aubin-Sauges, Rue du Castel 23;1190;46.8984385;6.7783422;Neuchatel;https://www.immobilier.ch/en/rent/apartment/neuchatel/st-aubin-sauges/the-swatch-group-immeubles-632/3-room-apartment-renovated-1312758
379;3;Neuchâtel, Brandards 9;1250;46.9897286;6.9021608;Neuchatel;https://www.immobilier.ch/en/rent/apartment/neuchatel/neuchatel/regie-immobiliere-jouval-113/fully-renovated-30-room-apartment-ideally-located-in-neuchatel-1386870
380;2;Couvet, Rue du Progrès 15;655;46.9225599;6.6280382;Neuchatel;https://www.immobilier.ch/en/rent/apartment/neuchatel/couvet/naef-immobilier-neuchatel-115/bel-appartement-situe-quartier-calme-verdoyant-1388694
381;4;La Chaux-de-Fonds, Rue de la Balance 5;1050;47.1036544;6.8321524;Neuchatel;https://www.immobilier.ch/en/rent/apartment/neuchatel/chaux-fonds/bolliger-immobilier-111/4-room-apartment-1335606
382;4;La Chaux-de-Fonds, Place de la Gare 4;1140;47.0990218;6.8259206;Neuchatel;https://www.immobilier.ch/en/rent/apartment/neuchatel/chaux-fonds/service-batiments-logement-1982/place-gare-4-apartment-on-the-4th-north-west-920598
383;4.5;La Chaux-de-Fonds, Rue des Champs 6;1265;47.0930096;6.8211722;Neuchatel;https://www.immobilier.ch/en/rent/apartment/neuchatel/chaux-fonds/pro-immob-119/for-rent-apartment-2300-chaux-fonds-22300100301-1281366
384;3.5;La Chaux-de-Fonds, Rue Jacob-Brandt 81;940;47.0937459;6.8200945;Neuchatel;https://www.immobilier.ch/en/rent/apartment/neuchatel/chaux-fonds/bolliger-immobilier-111/magnificent-accommodation-of-120m2-with-balon-1066902
385;4;La Chaux-de-Fonds, Rue du Bois-Noir 74-76-78;890;47.0913872;6.8042751;Neuchatel;https://www.immobilier.ch/en/rent/apartment/neuchatel/chaux-fonds/bz-immobilier-824/-640854
386;1.5;Neuchâtel, Rue de la Perriere 11;870;46.9833369;6.8999657;Neuchatel;https://www.immobilier.ch/en/rent/apartment/neuchatel/neuchatel/wincasa-siege-602/charming-bright-15-room-apartment-on-the-top-floor-with-lake-view-1362427
387;6.5;2108 Couvet, Contact agency for the address;1650;46.9282360;6.6335926;Neuchatel;https://www.immobilier.ch/en/rent/apartment/neuchatel/couvet/properti-ag-2229/charming-and-spacious-property-in-the-heart-of-val-travers-1364347
388;4.5;Neuchâtel, route de Pierre-à-Bot 30;1370;47.0001423;6.9180613;Neuchatel;https://www.immobilier.ch/en/rent/apartment/neuchatel/neuchatel/service-gerance-logement-ville-neuchatel-2648/45-room-duplex-apartment-on-the-4th-5th-floor-1228987
389;3;La Chaux-de-Fonds, Nord 189;700;47.1236339;6.8437997;Neuchatel;https://www.immobilier.ch/en/rent/apartment/neuchatel/chaux-fonds/bolliger-immobilier-111/75m2-accommodation-with-balcony-1088155
390;2;Les Geneveys-sur-Coffrane, Rue des Pâques 12;890;47.0150960;6.8532170;Neuchatel;https://www.immobilier.ch/en/rent/apartment/neuchatel/les-geneveys-coffrane/patrimoine-gerance-125/2-room-apartment-on-the-ground-floor-1375867
391;3;La Chaux-de-Fonds, Fritz-Courvoisier 24;820;47.1039728;6.8351920;Neuchatel;https://www.immobilier.ch/en/rent/apartment/neuchatel/chaux-fonds/fidimmobil-118/for-rent-apartment-2300-chaux-fonds-a290534-1312411
392;2.5;La Chaux-de-Fonds, Rue du Collège 7;890;47.1051175;6.8320896;Neuchatel;https://www.immobilier.ch/en/rent/apartment/neuchatel/chaux-fonds/pro-immob-119/for-rent-apartment-2300-chaux-fonds-19190100101-1390075
393;1;Le Locle, Auguste-Lambelet 3;750;47.0648341;6.7595431;Neuchatel;https://www.immobilier.ch/en/rent/apartment/neuchatel/locle/euro-courtage-1236/for-rent-apartment-2400-locle-50399001-010-1391419
394;3;La Chaux-de-Fonds, Place de la Gare 4;870;47.0991987;6.8253148;Neuchatel;https://www.immobilier.ch/en/rent/apartment/neuchatel/chaux-fonds/service-batiments-logement-1982/place-gare-4-apartment-12th-south-east-1254523
395;3;La Chaux-de-Fonds, Rue du Nord 135;780;47.1027911;6.8210258;Neuchatel;https://www.immobilier.ch/en/rent/apartment/neuchatel/chaux-fonds/pro-immob-119/for-rent-apartment-2300-chaux-fonds-19500100301-1359259
396;1.5;Le Locle, Henry-Grandjean 7;350;47.0559848;6.7475999;Neuchatel;https://www.immobilier.ch/en/rent/apartment/neuchatel/locle/gerance-cpcn-2497/apartment-close-to-all-amenities-1362368
397;4.5;Neuchâtel, Petit-Pontarlier 3;2230;46.9911113;6.9230904;Neuchatel;https://www.immobilier.ch/en/rent/apartment/neuchatel/neuchatel/apleona-schweiz-ag-670/magnificent-furnished-apartment-with-breathtaking-lake-views-1380320
398;1;Le Locle, Avenue du Technicum 11;620;47.0553144;6.7459659;Neuchatel;https://www.immobilier.ch/en/rent/apartment/neuchatel/locle/pro-immob-119/for-rent-apartment-2400-locle-19460100302-1167392
399;3;Neuchâtel, Bercles 3;1330;46.9931312;6.9285108;Neuchatel;https://www.immobilier.ch/en/rent/apartment/neuchatel/neuchatel/regie-immobiliere-jouval-113/opportunity-not-to-be-missed-splendid-2-bedroom-apartment-in-downtown-neuchatel-1383872
400;2.5;La Chaux-de-Fonds, Avenue Léopold-Robert 145b;1025;47.0951723;6.8177856;Neuchatel;https://www.immobilier.ch/en/rent/apartment/neuchatel/chaux-fonds/pro-immob-119/for-rent-apartment-2300-chaux-fonds-19080200106-1319456
401;3.5;Neuchâtel, Champréveyres 8;1400;47.0062736;6.9636351;Neuchatel;https://www.immobilier.ch/en/rent/apartment/neuchatel/neuchatel/reysus-gerance-1551/champreveyres-8-in-neuchatel-35-rooms-on-the-upper-ground-floor-1391456
402;4.5;Le Locle, Rue de France 1;1000;47.0564189;6.7465143;Neuchatel;https://www.immobilier.ch/en/rent/apartment/neuchatel/locle/bolliger-immobilier-111/-1392992
403;4;Neuchâtel, Chemin des Carrels 26;1350;46.9904492;6.8991487;Neuchatel;https://www.immobilier.ch/en/rent/apartment/neuchatel/neuchatel/naef-immobilier-neuchatel-115/appartement-1324352
404;4.5;La Chaux-de-Fonds, Rue du Cygne 6;1784;47.1014459;6.8266439;Neuchatel;https://www.immobilier.ch/en/rent/apartment/neuchatel/chaux-fonds/gerofinance-agences-location-2217/45-room-apartment-close-to-all-amenities-1325216
405;3;La Chaux-de-Fonds, Rue Arc-en-Ciel 4;900;47.1226670;6.8385960;Neuchatel;https://www.immobilier.ch/en/rent/apartment/neuchatel/chaux-fonds/service-batiments-logement-1982/rue-arc-ciel-4-apartment-3rd-north-west-1117472
406;3.5;Le Locle, Rue de France 17;990;47.0557088;6.7442236;Neuchatel;https://www.immobilier.ch/en/rent/apartment/neuchatel/locle/rilsa-288/35-room-apartment-on-the-1st-floor-1341056
407;3;La Chaux-de-Fonds, Place de la Gare 4;1545;47.0990024;6.8257375;Neuchatel;https://www.immobilier.ch/en/rent/apartment/neuchatel/chaux-fonds/service-batiments-logement-1982/place-gare-4-commercial-premises-on-the-1st-floor-north-west-1223205
408;1;Colombier NE, Rue Haute 29;650;46.9649162;6.8580840;Neuchatel;https://www.immobilier.ch/en/rent/apartment/neuchatel/colombier-ne/reysus-gerance-1551/haute-29-in-colombier-studio-no-14-in-the-center-of-the-village-1389669
409;3;La Chaux-de-Fonds, Croix - Fédérale 27c;920;47.1074223;6.8429821;Neuchatel;https://www.immobilier.ch/en/rent/apartment/neuchatel/chaux-fonds/wincasa-siege-602/rent-with-free-deposit-314757
410;3;Coffrane, Chemin de la Dîme 3;975;47.0092340;6.8611674;Neuchatel;https://www.immobilier.ch/en/rent/apartment/neuchatel/coffrane/ribaux-von-kessel-services-immobiliers-117/apartment-in-coffrane-1271877
411;3.5;La Chaux-de-Fonds, Avenue Léopold-Robert 114;1060;47.0965862;6.8190542;Neuchatel;https://www.immobilier.ch/en/rent/apartment/neuchatel/chaux-fonds/service-batiments-logement-1982/protected-apartment-with-framework-leopold-robert-114-pagode-1st-floor-east-35-rooms-1343877
412;3.5;Le Locle, Rue de la Concorde 23;700;47.0612315;6.7576382;Neuchatel;https://www.immobilier.ch/en/rent/apartment/neuchatel/locle/hypoimmo-950/beautiful-35-room-apartment-located-in-quartier-neuf-1347429
413;4;La Chaux-de-Fonds, Rue de l'Eclair 10;1210;47.0929242;6.8063537;Neuchatel;https://www.immobilier.ch/en/rent/apartment/neuchatel/chaux-fonds/service-batiments-logement-1982/rue-l39eclair-10-3rd-west-apartment-1283013
414;2.5;Le Locle, Rue de l'Industrie 9;600;47.0617148;6.7586310;Neuchatel;https://www.immobilier.ch/en/rent/apartment/neuchatel/locle/hypoimmo-950/beautiful-bright-25-room-apartment-1365898
415;2.5;Neuchâtel, Rue du Rocher 24;1380;46.9982669;6.9347754;Neuchatel;https://www.immobilier.ch/en/rent/apartment/neuchatel/neuchatel/privera-ag-2299/1-month-free-enjoy-magnificent-view-of-the-lake-1156906
416;3.5;Neuchâtel, Max-Petitpierre 44;1290;46.9851221;6.9124477;Neuchatel;https://www.immobilier.ch/en/rent/apartment/neuchatel/neuchatel/regie-immobiliere-jouval-113/beautiful-35-room-apartment-close-to-lake-neuchatel-1381354
417;3;La Brévine, Village 170;800;46.9795739;6.6067473;Neuchatel;https://www.immobilier.ch/en/rent/apartment/neuchatel/brevine/hypoimmo-950/warm-and-beautiful-3-room-apartment-1388746
418;4.5;Cernier, Impasse des Saules 2;1360;47.0610990;6.9072717;Neuchatel;https://www.immobilier.ch/en/rent/apartment/neuchatel/cernier/patrimoine-gerance-125/45-room-apartment-with-balcony-1391338
419;4.5;La Chaux-de-Fonds, Chemin Fantaisie 4;1595;47.0941649;6.8250720;Neuchatel;https://www.immobilier.ch/en/rent/apartment/neuchatel/chaux-fonds/gerance-cpcn-2497/very-beautiful-45-room-apartment-completely-new-with-balcony-loggia-1289002
420;3;Cortaillod, Chemin des Clavaz 3;1575;46.9476082;6.8456198;Neuchatel;https://www.immobilier.ch/en/rent/apartment/neuchatel/cortaillod/fidimmobil-118/for-rent-apartment-2016-cortaillod-b650002-1364015
421;N/A;Couvet, Rue du Quarre 22;1050;46.9223078;6.6321194;Neuchatel;https://www.immobilier.ch/en/rent/apartment/neuchatel/couvet/regie-immobiliere-jouval-113/spacious-35-room-apartment-in-couvet-1381487
422;3.5;La Chaux-de-Fonds, Neuve 5;1080;47.1222537;6.8338305;Neuchatel;https://www.immobilier.ch/en/rent/apartment/neuchatel/chaux-fonds/bolliger-immobilier-111/large-35-rooms-any-comfort-with-fireplace-883727
423;3;Neuchâtel, Rue des Charmettes 21;1205;46.9875634;6.9020082;Neuchatel;https://www.immobilier.ch/en/rent/apartment/neuchatel/neuchatel/fidimmobil-118/for-rent-apartment-2000-neuchatel-0600111-1387823
424;2.5;Bevaix, Chemin du Pré-Rond 1;1000;46.9352900;6.8143505;Neuchatel;https://www.immobilier.ch/en/rent/apartment/neuchatel/bevaix/ribaux-von-kessel-services-immobiliers-117/apartment-in-bevaix-with-neighborhood-view-1327919
425;3.5;La Chaux-de-Fonds, Avenue Léopold-Robert 114;1030;47.0965862;6.8190542;Neuchatel;https://www.immobilier.ch/en/rent/apartment/neuchatel/chaux-fonds/service-batiments-logement-1982/protected-apartments-with-supervision-leopold-robert-114-pagode-from-the-2nd-to-the-8th-1343855
426;4.5;La Chaux-de-Fonds, Rue du Cygne 6;1824;47.1014459;6.8266439;Neuchatel;https://www.immobilier.ch/en/rent/apartment/neuchatel/chaux-fonds/gerofinance-agences-location-2217/spacious-45-room-apartment-close-to-all-amenities-1347215
427;1;Colombier NE, Saules 5;809;46.9680650;6.8653740;Neuchatel;https://www.immobilier.ch/en/rent/apartment/neuchatel/colombier-ne/gerance-charles-berset-136/00204-studio-1-room-willows-5-colombier-ne-346799
428;4;La Chaux-de-Fonds, Rue du Bois-Noir 74-76-78;990;47.0913872;6.8042751;Neuchatel;https://www.immobilier.ch/en/rent/apartment/neuchatel/chaux-fonds/bz-immobilier-824/-640847
429;4;La Chaux-de-Fonds, Beau-Site 1;960;47.0986100;6.8324956;Neuchatel;https://www.immobilier.ch/en/rent/apartment/neuchatel/chaux-fonds/gerance-charles-berset-136/00076-4-room-apartment-beau-site-1-chaux-fonds-1075668
430;4;Neuchâtel, Rue de la Dîme 55;1600;47.0093771;6.9627560;Neuchatel;https://www.immobilier.ch/en/rent/apartment/neuchatel/neuchatel/gpc-gerance-ppe-courtage-1582/rue-dime-55-neuchatel-4-room-apartment-on-the-1st-floor-1298868
431;3;La Chaux-de-Fonds, Avenue Charles-Naine 22;940;47.0922035;6.8077709;Neuchatel;https://www.immobilier.ch/en/rent/apartment/neuchatel/chaux-fonds/hypoimmo-950/beautiful-renovated-3-room-apartment-1316052
432;4;Neuchâtel, Rue Pierre-de-Vingle 24;1350;46.9816792;6.8938920;Neuchatel;https://www.immobilier.ch/en/rent/apartment/neuchatel/neuchatel/naef-immobilier-neuchatel-115/appartement-1255284
433;3;Le Locle, Rue du Marais 20;870;47.0605262;6.7533025;Neuchatel;https://www.immobilier.ch/en/rent/apartment/neuchatel/locle/rilsa-288/are-you-looking-for-stylish-comfortable-and-ideally-located-apartment-in-899508
434;3;Neuchâtel, Rue Frédéric-Carl de Marval 20;1225;47.0054724;6.9591526;Neuchatel;https://www.immobilier.ch/en/rent/apartment/neuchatel/neuchatel/apleona-schweiz-ag-670/spacious-accommodation-in-green-area-1354452
435;4;St-Blaise, Sous-les-Vignes 2-2A;1280;47.0117094;6.9922061;Neuchatel;https://www.immobilier.ch/en/rent/apartment/neuchatel/st-blaise/naef-immobilier-neuchatel-115/renovated-beautiful-4-room-apartment-just-steps-from-the-lake-in-st-blaise-1363417
436;4;La Chaux-de-Fonds, Rue du Pont 4;1010;47.1039914;6.8334034;Neuchatel;https://www.immobilier.ch/en/rent/apartment/neuchatel/chaux-fonds/bolliger-immobilier-111/4-room-apartment-1375705
437;3.5;La Chaux-de-Fonds, Rue du Progrès 91;940;47.1014057;6.8215438;Neuchatel;https://www.immobilier.ch/en/rent/apartment/neuchatel/chaux-fonds/ellipsis-710/magnificent-35-room-apartment-fully-renovated-1389721
438;2.5;La Chaux-de-Fonds, Avenue Léopold-Robert 145b;1025;47.0951723;6.8177856;Neuchatel;https://www.immobilier.ch/en/rent/apartment/neuchatel/chaux-fonds/pro-immob-119/for-rent-apartment-2300-chaux-fonds-19080200004-1319449
439;2.5;La Chaux-de-Fonds, Temple-Allemand 101;770;47.1013845;6.8205885;Neuchatel;https://www.immobilier.ch/en/rent/apartment/neuchatel/chaux-fonds/fidimmobil-118/for-rent-apartment-2300-chaux-fonds-c210002-397657
440;2.5;Le Locle, Rue Georges-Favre 2;660;47.0544860;6.7409976;Neuchatel;https://www.immobilier.ch/en/rent/apartment/neuchatel/locle/patrimoine-gerance-125/magnificent-renovated-25-room-apartments-with-hallways-1331257
441;2.5;Neuchâtel, Rue de l'Ecluse 57;1350;46.9923082;6.9222394;Neuchatel;https://www.immobilier.ch/en/rent/apartment/neuchatel/neuchatel/naef-immobilier-neuchatel-115/centre-ville-neuchatel-quartier-vivant-1127737
442;4;La Chaux-de-Fonds, Rue du Bois-Noir 74-76-78;790;47.0913872;6.8042751;Neuchatel;https://www.immobilier.ch/en/rent/apartment/neuchatel/chaux-fonds/bz-immobilier-824/00190-quiet-area-without-traffic-rue-bois-noir-74-76-78-chaux-fonds-640825
443;2;La Chaux-de-Fonds, Rue Combe-Grieurin 39B;822;47.1012068;6.8174635;Neuchatel;https://www.immobilier.ch/en/rent/apartment/neuchatel/chaux-fonds/patrimoine-gerance-125/2-room-apartment-with-magnificent-city-views-1367102
444;3;Couvet, Rue Jules-Baillods 5;795;46.9230669;6.6297637;Neuchatel;https://www.immobilier.ch/en/rent/apartment/neuchatel/couvet/gerance-cpcn-2497/charming-3-room-apartment-with-fully-renovated-kitchen-1369886
445;3;La Chaux-de-Fonds, Rue Cernil-Antoine 11;870;47.0971080;6.8144394;Neuchatel;https://www.immobilier.ch/en/rent/apartment/neuchatel/chaux-fonds/fidimmobil-118/for-rent-apartment-2300-chaux-fonds-h281414-943358
446;5.5;Le Locle, Rue des Billodes 44;890;47.0547362;6.7380437;Neuchatel;https://www.immobilier.ch/en/rent/apartment/neuchatel/locle/gerofinance-agences-location-2217/55-room-apartment-of-150m2-1088510
447;4.5;Neuchâtel, Rue de L'Evole 40;2600;46.9882986;6.9176028;Neuchatel;https://www.immobilier.ch/en/rent/apartment/neuchatel/neuchatel/optigestion-services-immobiliers-126/spacious-45-room-apartment-with-lake-view-1384766
448;3;Boudry, Lières 15;1180;46.9513505;6.8378337;Neuchatel;https://www.immobilier.ch/en/rent/apartment/neuchatel/boudry/naef-immobilier-neuchatel-115/appartement-1314590
449;3;La Chaux-de-Fonds, Numa Droz 199;1020;47.0946171;6.8122320;Neuchatel;https://www.immobilier.ch/en/rent/apartment/neuchatel/chaux-fonds/patrimoine-gerance-125/3-room-apartment-with-balcony-1261886
450;3;La Chaux-de-Fonds, Rue du Châtelot 3;1090;47.0909706;6.8083237;Neuchatel;https://www.immobilier.ch/en/rent/apartment/neuchatel/chaux-fonds/service-batiments-logement-1982/secure-apartment-with-framework-rue-chatelot-3-3-room-apartment-on-the-ground-floor-1269950
451;3;Neuchâtel, Rue des Fahys 65;1230;46.9995330;6.9416030;Neuchatel;https://www.immobilier.ch/en/rent/apartment/neuchatel/neuchatel/wincasa-siege-602/rent-with-free-deposit-near-train-station-130622
452;3.5;La Chaux-de-Fonds, Rue Numa-Droz 15;1190;47.1055931;6.8293852;Neuchatel;https://www.immobilier.ch/en/rent/apartment/neuchatel/chaux-fonds/pro-immob-119/for-rent-apartment-2300-chaux-fonds-22940100201-1232931
453;4;Neuchâtel, Saint-Nicolas 22;1500;46.9900854;6.9174956;Neuchatel;https://www.immobilier.ch/en/rent/apartment/neuchatel/neuchatel/service-gerance-logement-ville-neuchatel-2648/renovated-4-room-apartment-1383843
454;3;Neuchâtel, Rue Pierre-à-Mazel 11;1245;46.9953465;6.9419560;Neuchatel;https://www.immobilier.ch/en/rent/apartment/neuchatel/neuchatel/naef-immobilier-neuchatel-115/appartement-1240899
455;3;La Chaux-de-Fonds, Rue du Parc 101;920;47.0984990;6.8207878;Neuchatel;https://www.immobilier.ch/en/rent/apartment/neuchatel/chaux-fonds/ellipsis-710/beautiful-3-room-apartment-1315395
456;3;Boudry, Grandson 32;1150;46.9466560;6.8319263;Neuchatel;https://www.immobilier.ch/en/rent/apartment/neuchatel/boudry/fiduciaire-daniel-jaggi-130/well-located-apartment-in-quiet-area-1315875
457;4;La Chaux-de-Fonds, Fleurs 26;821;47.1081341;6.8330071;Neuchatel;https://www.immobilier.ch/en/rent/apartment/neuchatel/chaux-fonds/gerance-charles-berset-136/01606-4-room-apartment-4th-east-fleurs-26-chaux-fonds-386211
458;4.5;Neuchâtel, Rue du Vully 20;1425;47.0108712;6.9607705;Neuchatel;https://www.immobilier.ch/en/rent/apartment/neuchatel/neuchatel/apleona-schweiz-ag-670/lovely-45-room-apartment-with-lake-view-1345827
459;3.5;La Chaux-de-Fonds, Temple-Allemand 71;950;47.1028000;6.8226770;Neuchatel;https://www.immobilier.ch/en/rent/apartment/neuchatel/chaux-fonds/gerance-charles-berset-136/01163-3-room-apartment-temple-allemand-71-chaux-fonds-129027
460;3;Neuchâtel, Rue de Grise-Pierre 7;1400;46.9854576;6.9087910;Neuchatel;https://www.immobilier.ch/en/rent/apartment/neuchatel/neuchatel/naef-immobilier-neuchatel-115/appartement-1375720
461;4;Neuchâtel, Rue de Jolimont 8;1190;47.0119858;6.9612387;Neuchatel;https://www.immobilier.ch/en/rent/apartment/neuchatel/neuchatel/naef-immobilier-neuchatel-115/appartement-1305064
462;3.5;La Chaux-de-Fonds, Balance 8;860;47.1168348;6.8367277;Neuchatel;https://www.immobilier.ch/en/rent/apartment/neuchatel/chaux-fonds/fidimmobil-118/for-rent-apartment-2300-chaux-fonds-a980302-455656
463;2.5;La Chaux-de-Fonds, Avenue Léopold-Robert 145b;1115;47.0951723;6.8177856;Neuchatel;https://www.immobilier.ch/en/rent/apartment/neuchatel/chaux-fonds/pro-immob-119/for-rent-apartment-2300-chaux-fonds-19080200303-1319464
464;4.5;Neuchâtel, Rue de l'Evole 108;2300;46.9866002;6.9135469;Neuchatel;https://www.immobilier.ch/en/rent/apartment/neuchatel/neuchatel/gerance-cpcn-2497/fully-renovated-45-room-apartment-1393192
465;2;Chaumont, chemin de la Tour 23;700;47.0265842;6.9566295;Neuchatel;https://www.immobilier.ch/en/rent/apartment/neuchatel/chaumont/service-gerance-logement-ville-neuchatel-2648/2-room-apartment-on-the-2nd-floor-1323016
466;3;Peseux, Rue des Combes 1;1230;46.9892192;6.8935230;Neuchatel;https://www.immobilier.ch/en/rent/apartment/neuchatel/peseux/naef-immobilier-neuchatel-115/appartement-1354984
467;2.5;Le Locle, Rue Bournot 17a;858;47.0572910;6.7499738;Neuchatel;https://www.immobilier.ch/en/rent/apartment/neuchatel/locle/poste-immobilier-ms-1735/lovely-apartment-for-rent-in-locle-ideally-located-1359208
468;3.5;La Chaux-de-Fonds, Rue de la Charrière 33;600;47.1094434;6.8318861;Neuchatel;https://www.immobilier.ch/en/rent/apartment/neuchatel/chaux-fonds/bolliger-immobilier-111/3-room-apartment-on-the-ground-floor-1084301
